{
  "version": 0.6,
  "generator": "Overpass API 0.7.56.9 76e5016d",
  "osm3s": {
    "timestamp_osm_base": "2021-07-12T10:07:58Z",
    "timestamp_areas_base": "2021-07-12T09:55:57Z",
    "copyright": "The data included in this document is from www.openstreetmap.org. The data is made available under ODbL."
  },
  "elements": [
    {
      "type": "node",
      "id": 265644030,
      "lat": 51.1133284,
      "lon": 17.0121635,
      "tags": {
        "shop": "greengrocer"
      }
    },
    {
      "type": "node",
      "id": 265644138,
      "lat": 51.1207642,
      "lon": 17.0129029,
      "tags": {
        "shop": "vacant"
      }
    },
    {
      "type": "node",
      "id": 265644193,
      "lat": 51.1177474,
      "lon": 17.0104981,
      "tags": {
        "name": "Rabat",
        "shop": "supermarket"
      }
    },
    {
      "type": "node",
      "id": 265644198,
      "lat": 51.1162943,
      "lon": 17.0125842,
      "tags": {
        "shop": "kiosk"
      }
    },
    {
      "type": "node",
      "id": 265644220,
      "lat": 51.1155102,
      "lon": 17.0152241,
      "tags": {
        "name": "Przystanek",
        "shop": "convenience"
      }
    },
    {
      "type": "node",
      "id": 266010556,
      "lat": 51.1252026,
      "lon": 16.989916,
      "tags": {
        "shop": "kiosk"
      }
    },
    {
      "type": "node",
      "id": 266010617,
      "lat": 51.118278,
      "lon": 17.0106442,
      "tags": {
        "name": "Warzywniak",
        "shop": "greengrocer"
      }
    },
    {
      "type": "node",
      "id": 302858065,
      "lat": 51.1048582,
      "lon": 17.0429596,
      "tags": {
        "addr:city": "Wrocław",
        "addr:housenumber": "2",
        "addr:postcode": "50-450",
        "addr:street": "Stanisława Worcella",
        "description": "naprawa laptopów",
        "name": "Olimp",
        "opening_hours": "Mo-Fr 11:00-19:00",
        "phone": "+48 71 725 69 62",
        "repair": "yes",
        "shop": "computer",
        "source": "wroclaw-serwis-komputerowy.pl/",
        "url": "http://olimp.sklep.pl/",
        "website": "http://wroclaw-serwis-komputerowy.pl/"
      }
    },
    {
      "type": "node",
      "id": 311791515,
      "lat": 51.0548581,
      "lon": 16.9776013,
      "tags": {
        "name": "Agata Meble",
        "shop": "furniture"
      }
    },
    {
      "type": "node",
      "id": 314063816,
      "lat": 51.1094162,
      "lon": 17.0305731,
      "tags": {
        "addr:city": "Wrocław",
        "addr:housenumber": "14",
        "addr:postcode": "50-101",
        "addr:street": "Rynek",
        "description": "Information desk with maps and brochures and a gift shop",
        "information": "office",
        "name": "Informacja Kulturalna i Turystyczna",
        "opening_hours": "9:00-21:00",
        "shop": "gift",
        "tourism": "information",
        "wheelchair": "yes"
      }
    },
    {
      "type": "node",
      "id": 323235743,
      "lat": 51.0876656,
      "lon": 17.040789,
      "tags": {
        "shop": "kiosk"
      }
    },
    {
      "type": "node",
      "id": 323235751,
      "lat": 51.088099,
      "lon": 17.0360586,
      "tags": {
        "shop": "kiosk"
      }
    },
    {
      "type": "node",
      "id": 330021566,
      "lat": 51.1469703,
      "lon": 17.1137334,
      "tags": {
        "name": "Alkoohole",
        "opening_hours": "24/7",
        "shop": "alcohol"
      }
    },
    {
      "type": "node",
      "id": 425808629,
      "lat": 51.1321923,
      "lon": 17.0653131,
      "tags": {
        "name": "Ruch",
        "opening_hours": "Mo-Fr 06:00-19:00; Sa 07:00-18:00",
        "shop": "kiosk"
      }
    },
    {
      "type": "node",
      "id": 425808670,
      "lat": 51.113111,
      "lon": 17.0596352,
      "tags": {
        "name": "Empik",
        "opening_hours": "Mo-Sa 09:00-21:00; Su 10:00-20:00",
        "shop": "books",
        "wheelchair": "yes"
      }
    },
    {
      "type": "node",
      "id": 425808674,
      "lat": 51.1128108,
      "lon": 17.0586184,
      "tags": {
        "level": "-1",
        "name": "Aquael Zoo",
        "shop": "pet"
      }
    },
    {
      "type": "node",
      "id": 436769492,
      "lat": 51.1409289,
      "lon": 17.0842572,
      "tags": {
        "name": "Kakadu",
        "shop": "pet"
      }
    },
    {
      "type": "node",
      "id": 436769493,
      "lat": 51.1405576,
      "lon": 17.082906,
      "tags": {
        "shop": "vacant"
      }
    },
    {
      "type": "node",
      "id": 448482831,
      "lat": 51.1512366,
      "lon": 17.0263958,
      "tags": {
        "brand": "Biedronka",
        "brand:wikidata": "Q857182",
        "brand:wikipedia": "pl:Biedronka (sieć handlowa)",
        "name": "Biedronka",
        "opening_hours": "24/7",
        "shop": "supermarket",
        "wheelchair": "yes"
      }
    },
    {
      "type": "node",
      "id": 448482839,
      "lat": 51.15243,
      "lon": 17.0272379,
      "tags": {
        "name": "CerroTorre",
        "shop": "outdoor"
      }
    },
    {
      "type": "node",
      "id": 448482846,
      "lat": 51.1525628,
      "lon": 17.0270806,
      "tags": {
        "shop": "shoes"
      }
    },
    {
      "type": "node",
      "id": 448482850,
      "lat": 51.152607,
      "lon": 17.0271961,
      "tags": {
        "name": "Kakadu",
        "shop": "pet"
      }
    },
    {
      "type": "node",
      "id": 469900696,
      "lat": 51.1177375,
      "lon": 16.9877699,
      "tags": {
        "brand": "Media Markt",
        "brand:wikidata": "Q2381223",
        "brand:wikipedia": "en:Media Markt",
        "name": "Media Markt",
        "old_name": "Saturn",
        "opening_hours": "Mo-Su 09:00-21:00",
        "phone": "+48 799 353 535",
        "shop": "electronics",
        "website": "https://mediamarkt.pl/sklep/saturn-wroclaw-magnolia-park-",
        "wheelchair": "yes"
      }
    },
    {
      "type": "node",
      "id": 469900702,
      "lat": 51.1194297,
      "lon": 16.988296,
      "tags": {
        "addr:city": "Wrocław",
        "addr:housenumber": "58",
        "addr:postcode": "54-204",
        "addr:street": "Legnicka",
        "level": "0",
        "name": "Carrefour",
        "opening_hours": "Mo-Sa 08:30-21:00",
        "shop": "supermarket",
        "start_date": "2020-10-14",
        "website": "https://www.carrefour.pl/sklepy/194",
        "wheelchair": "yes"
      }
    },
    {
      "type": "node",
      "id": 469900708,
      "lat": 51.1200391,
      "lon": 16.9910226,
      "tags": {
        "name": "Empik",
        "shop": "books",
        "wheelchair": "limited"
      }
    },
    {
      "type": "node",
      "id": 533647837,
      "lat": 51.0893364,
      "lon": 17.0214617,
      "tags": {
        "name": "Społem",
        "operator": "Społem PSS Południe",
        "shop": "convenience"
      }
    },
    {
      "type": "node",
      "id": 600395012,
      "lat": 51.1596743,
      "lon": 17.1337284,
      "tags": {
        "name": "Rabat",
        "shop": "convenience"
      }
    },
    {
      "type": "node",
      "id": 600727779,
      "lat": 51.1433342,
      "lon": 17.1230518,
      "tags": {
        "shop": "convenience"
      }
    },
    {
      "type": "node",
      "id": 613077993,
      "lat": 51.1601824,
      "lon": 17.1362101,
      "tags": {
        "name": "Strefa Cięcia",
        "shop": "hairdresser"
      }
    },
    {
      "type": "node",
      "id": 614353795,
      "lat": 51.146458,
      "lon": 17.1209399,
      "tags": {
        "addr:city": "Wrocław",
        "addr:housenumber": "1A",
        "addr:postcode": "51-315",
        "addr:street": "Miłostowska",
        "name": "Żabka",
        "opening_hours": "Mo-Sa 06:00-23:00",
        "shop": "convenience"
      }
    },
    {
      "type": "node",
      "id": 617035151,
      "lat": 51.0783948,
      "lon": 16.9578467,
      "tags": {
        "name": "Żabka",
        "shop": "convenience"
      }
    },
    {
      "type": "node",
      "id": 676657566,
      "lat": 51.1428289,
      "lon": 17.1266823,
      "tags": {
        "name": "Speedcity",
        "shop": "bicycle"
      }
    },
    {
      "type": "node",
      "id": 679288375,
      "lat": 51.0835731,
      "lon": 17.036647,
      "tags": {
        "name": "OneDayClinic",
        "opening_hours": "Mo,Th 09:00-17:00; Tu,We,Fr 10:00-18:00",
        "shop": "optician",
        "website": "https://www.onedayclinic.pl/centrum-okulistyczno-optyczne-wroclaw-armii-krajowej/"
      }
    },
    {
      "type": "node",
      "id": 679292470,
      "lat": 51.0835249,
      "lon": 17.039742,
      "tags": {
        "bulk_purchase": "yes",
        "email": "sklep@nagramy.pl",
        "full_name": "Na gramy, sklep bez plastiku",
        "name": "Na gramy",
        "opening_hours": "Mo-Fr 11:00-19:00; Sa 10:00-16:00",
        "organic": "yes",
        "shop": "convenience",
        "website": "https://nagramy.pl",
        "wheelchair": "limited",
        "zero_waste": "yes"
      }
    },
    {
      "type": "node",
      "id": 702379305,
      "lat": 51.0985691,
      "lon": 17.0061504,
      "tags": {
        "check_date": "2020-09-01",
        "name": "Żabka",
        "opening_hours": "Mo-Su 06:00-23:00",
        "shop": "convenience"
      }
    },
    {
      "type": "node",
      "id": 748780723,
      "lat": 51.1420943,
      "lon": 17.1241986,
      "tags": {
        "addr:city": "Wrocław",
        "addr:housenumber": "2b",
        "addr:postcode": "51-354",
        "addr:street": "Litewska",
        "alt_name": "Piekarnia i Cukiernia Biskupin",
        "name": "Biskupin",
        "opening_hours": "Mo-Fr 06:00-19:00, Sa 07:30-14:00, Su 08:30-14:00",
        "shop": "bakery",
        "website": "http://piekarnia-biskupin.pl"
      }
    },
    {
      "type": "node",
      "id": 765975771,
      "lat": 51.1225879,
      "lon": 17.0495673,
      "tags": {
        "shop": "convenience"
      }
    },
    {
      "type": "node",
      "id": 899439759,
      "lat": 51.1356967,
      "lon": 17.030181,
      "tags": {
        "name": "Reko",
        "shop": "convenience"
      }
    },
    {
      "type": "node",
      "id": 931903957,
      "lat": 51.0965683,
      "lon": 17.0094627,
      "tags": {
        "addr:city": "Wrocław",
        "addr:housenumber": "42",
        "addr:postcode": "53-426",
        "addr:street": "Jemiołowa",
        "name": "Delikatesy T&J",
        "opening_hours": "Mo-Sa 07:00-21:00; Su 09:00-16:00",
        "operator": "Tradycja i Jakość",
        "shop": "supermarket",
        "wheelchair": "limited"
      }
    },
    {
      "type": "node",
      "id": 935802485,
      "lat": 51.110343,
      "lon": 17.0271105,
      "tags": {
        "check_date": "2021-07-07",
        "shop": "vacant"
      }
    },
    {
      "type": "node",
      "id": 936465811,
      "lat": 51.1350952,
      "lon": 17.0342596,
      "tags": {
        "name": "Mini Market",
        "shop": "convenience"
      }
    },
    {
      "type": "node",
      "id": 943696516,
      "lat": 51.1354737,
      "lon": 17.03248,
      "tags": {
        "addr:city": "Wrocław",
        "addr:housenumber": "34",
        "addr:street": "Obornicka",
        "name": "Studio Fryzjerskie 34",
        "shop": "hairdresser"
      }
    },
    {
      "type": "node",
      "id": 943696534,
      "lat": 51.1338514,
      "lon": 17.0318189,
      "tags": {
        "shop": "computer"
      }
    },
    {
      "type": "node",
      "id": 943696618,
      "lat": 51.1339028,
      "lon": 17.0320916,
      "tags": {
        "shop": "copyshop"
      }
    },
    {
      "type": "node",
      "id": 943696787,
      "lat": 51.1346069,
      "lon": 17.0350064,
      "tags": {
        "shop": "hairdresser"
      }
    },
    {
      "type": "node",
      "id": 955074552,
      "lat": 51.1358416,
      "lon": 17.0305432,
      "tags": {
        "shop": "hairdresser"
      }
    },
    {
      "type": "node",
      "id": 957315405,
      "lat": 51.1355603,
      "lon": 17.0373645,
      "tags": {
        "addr:city": "Wrocław",
        "addr:housenumber": "1c",
        "addr:postcode": "51-136",
        "addr:street": "Aleja Jana Kasprowicza",
        "name": "Revia",
        "second_hand": "only",
        "shop": "clothes"
      }
    },
    {
      "type": "node",
      "id": 958617747,
      "lat": 51.1380288,
      "lon": 17.0324706,
      "tags": {
        "name": "Lombard",
        "shop": "money_lender"
      }
    },
    {
      "type": "node",
      "id": 958618044,
      "lat": 51.1394313,
      "lon": 17.0322015,
      "tags": {
        "brand": "Suzuki",
        "name": "Suzuki JM Auto",
        "shop": "car"
      }
    },
    {
      "type": "node",
      "id": 960190143,
      "lat": 51.087479,
      "lon": 17.0126878,
      "tags": {
        "name": "Alf",
        "shop": "convenience",
        "wheelchair": "no"
      }
    },
    {
      "type": "node",
      "id": 960190148,
      "lat": 51.0872183,
      "lon": 17.012532,
      "tags": {
        "name": "Grabarczyk",
        "shop": "bakery"
      }
    },
    {
      "type": "node",
      "id": 961731273,
      "lat": 51.1355106,
      "lon": 17.0371662,
      "tags": {
        "name": "Kamelia",
        "shop": "florist"
      }
    },
    {
      "type": "node",
      "id": 961731291,
      "lat": 51.1353532,
      "lon": 17.0370707,
      "tags": {
        "operator": "PUH Polmer",
        "shop": "florist"
      }
    },
    {
      "type": "node",
      "id": 962972392,
      "lat": 51.0919409,
      "lon": 17.0069293,
      "tags": {
        "brand": "Biedronka",
        "name": "Biedronka",
        "operator": "Jeronimo Martins Polska S.A.",
        "shop": "supermarket"
      }
    },
    {
      "type": "node",
      "id": 963258771,
      "lat": 51.1348123,
      "lon": 17.0384654,
      "tags": {
        "name": "Jomo",
        "second_hand": "only",
        "shop": "clothes"
      }
    },
    {
      "type": "node",
      "id": 963258774,
      "lat": 51.1348078,
      "lon": 17.0380442,
      "tags": {
        "shop": "vacant"
      }
    },
    {
      "type": "node",
      "id": 963258776,
      "lat": 51.1346661,
      "lon": 17.0373417,
      "tags": {
        "addr:city": "Wrocław",
        "addr:housenumber": "1b",
        "addr:postcode": "51-118",
        "addr:street": "Zawalna",
        "name": "Zawalna",
        "opening_hours": "Mo-Su 10:00-18:00",
        "shop": "pastry",
        "start_date": "1988"
      }
    },
    {
      "type": "node",
      "id": 963258790,
      "lat": 51.1346719,
      "lon": 17.0372136,
      "tags": {
        "name": "Optyka MKS",
        "opening_hours": "Mo-Fr 10:00-18:00; Sa 10:00-14:00",
        "shop": "optician"
      }
    },
    {
      "type": "node",
      "id": 963258791,
      "lat": 51.1348084,
      "lon": 17.0381698,
      "tags": {
        "name": "Oris",
        "shop": "clothes"
      }
    },
    {
      "type": "node",
      "id": 963258796,
      "lat": 51.1347443,
      "lon": 17.0379567,
      "tags": {
        "name": "Modele.sklep.pl",
        "shop": "toys",
        "website": "http://www.modele.sklep.pl"
      }
    },
    {
      "type": "node",
      "id": 965270933,
      "lat": 51.1354989,
      "lon": 17.0377639,
      "tags": {
        "addr:city": "Wrocław",
        "addr:housenumber": "7b",
        "addr:postcode": "51-136",
        "addr:street": "Aleja Jana Kasprowicza",
        "shop": "shoes"
      }
    },
    {
      "type": "node",
      "id": 965270984,
      "lat": 51.1355433,
      "lon": 17.037692,
      "tags": {
        "addr:city": "Wrocław",
        "addr:housenumber": "5",
        "addr:postcode": "51-136",
        "addr:street": "Aleja Jana Kasprowicza",
        "shop": "pet"
      }
    },
    {
      "type": "node",
      "id": 965271010,
      "lat": 51.1358102,
      "lon": 17.0386767,
      "tags": {
        "addr:city": "Wrocław",
        "addr:housenumber": "12a",
        "addr:postcode": "51-138",
        "addr:street": "Księdza Norberta Bonczyka",
        "name": "Ama Studio Rekondycyjne",
        "shop": "beauty"
      }
    },
    {
      "type": "node",
      "id": 965271173,
      "lat": 51.1348158,
      "lon": 17.0387697,
      "tags": {
        "name": "Effect",
        "shop": "hairdresser"
      }
    },
    {
      "type": "node",
      "id": 965271223,
      "lat": 51.1358621,
      "lon": 17.0385957,
      "tags": {
        "addr:city": "Wrocław",
        "addr:housenumber": "13a",
        "addr:postcode": "51-136",
        "addr:street": "Aleja Jana Kasprowicza",
        "name": "Sklep Wielobranżowy",
        "shop": "garden_centre"
      }
    },
    {
      "type": "node",
      "id": 970470751,
      "lat": 51.0870945,
      "lon": 17.0123737,
      "tags": {
        "shop": "vacant"
      }
    },
    {
      "type": "node",
      "id": 972244726,
      "lat": 51.0869107,
      "lon": 17.0121544,
      "tags": {
        "name": "Żabka",
        "shop": "convenience",
        "start_date": "2021"
      }
    },
    {
      "type": "node",
      "id": 980715594,
      "lat": 51.1365042,
      "lon": 17.0350596,
      "tags": {
        "addr:city": "Wrocław",
        "addr:housenumber": "24",
        "addr:postcode": "51-130",
        "addr:street": "Żmigrodzka",
        "shop": "convenience"
      }
    },
    {
      "type": "node",
      "id": 980715851,
      "lat": 51.1364859,
      "lon": 17.0350458,
      "tags": {
        "addr:city": "Wrocław",
        "addr:housenumber": "24",
        "addr:postcode": "51-130",
        "addr:street": "Żmigrodzka",
        "shop": "bicycle"
      }
    },
    {
      "type": "node",
      "id": 984882895,
      "lat": 51.0772828,
      "lon": 17.083649,
      "tags": {
        "addr:city": "Wrocław",
        "addr:housenumber": "63",
        "addr:postcode": "52-010",
        "addr:street": "Opolska",
        "addr:street:sym_ul": "15095",
        "name": "Społem",
        "note": "To supermarket,a nie convenience",
        "shop": "supermarket",
        "source:addr": "WroclawGIS"
      }
    },
    {
      "type": "node",
      "id": 1073543478,
      "lat": 51.0800113,
      "lon": 17.0808593,
      "tags": {
        "name": "Piekarnia Opolska",
        "shop": "bakery"
      }
    },
    {
      "type": "node",
      "id": 1074734823,
      "lat": 51.0759821,
      "lon": 17.0833748,
      "tags": {
        "shop": "convenience"
      }
    },
    {
      "type": "node",
      "id": 1074734856,
      "lat": 51.0770492,
      "lon": 17.0832495,
      "tags": {
        "name": "U Zenka",
        "shop": "greengrocer"
      }
    },
    {
      "type": "node",
      "id": 1074869013,
      "lat": 51.0993494,
      "lon": 17.0172323,
      "tags": {
        "name": "Prima",
        "shop": "convenience",
        "wheelchair": "yes"
      }
    },
    {
      "type": "node",
      "id": 1077588392,
      "lat": 51.0789767,
      "lon": 17.0784569,
      "tags": {
        "name": "Auto Rak",
        "shop": "car_repair"
      }
    },
    {
      "type": "node",
      "id": 1085765971,
      "lat": 51.0877995,
      "lon": 17.0165457,
      "tags": {
        "name": "Piwny ten świat",
        "shop": "alcohol"
      }
    },
    {
      "type": "node",
      "id": 1085765976,
      "lat": 51.0876933,
      "lon": 17.0157236,
      "tags": {
        "name": "K&V",
        "opening_hours": "Mo-Fr 09:00-16:00; Sa 09:00-14:00",
        "shop": "hairdresser"
      }
    },
    {
      "type": "node",
      "id": 1112021723,
      "lat": 51.1109819,
      "lon": 17.0569803,
      "tags": {
        "addr:city": "Wrocław",
        "addr:housenumber": "12-14",
        "addr:street": "Plac Grunwaldzki",
        "brand": "Biedronka",
        "brand:wikidata": "Q857182",
        "brand:wikipedia": "pl:Biedronka (sieć handlowa)",
        "email": "bok@biedronka.eu",
        "name": "Biedronka",
        "name:ru": "Бедронка",
        "opening_hours": "Mo-Sa 00:00-00:00",
        "operator": "Jeronimo Martins Polska S.A.",
        "payment:cards": "yes",
        "payment:cash": "yes",
        "shop": "supermarket",
        "website": "https://www.biedronka.pl/pl/shop,id,1302,title,wroclaw-plac-grunwaldzki-12-14",
        "wheelchair": "yes"
      }
    },
    {
      "type": "node",
      "id": 1112021738,
      "lat": 51.1231396,
      "lon": 17.0520095,
      "tags": {
        "brand": "Biedronka",
        "email": "bok@biedronka.eu",
        "name": "Biedronka",
        "name:ru": "Бедронка",
        "opening_hours": "Mo-Sa 07:00-21:00; Su 09:00-20:00",
        "operator": "Jeronimo Martins Polska S.A.",
        "shop": "supermarket",
        "website": "https://www.biedronka.pl"
      }
    },
    {
      "type": "node",
      "id": 1116138494,
      "lat": 51.1291747,
      "lon": 16.9709476,
      "tags": {
        "name": "Boti",
        "shop": "shoes"
      }
    },
    {
      "type": "node",
      "id": 1116138496,
      "lat": 51.1292615,
      "lon": 16.9701281,
      "tags": {
        "brand": "Biedronka",
        "brand:wikidata": "Q857182",
        "brand:wikipedia": "pl:Biedronka (sieć handlowa)",
        "email": "bok@biedronka.eu",
        "name": "Biedronka",
        "name:ru": "Бедронка",
        "opening_hours": "Mo-Th 06:30-22:00; Fr-Sa 6:30-23:00; Su 08:00-21:00",
        "operator": "Jeronimo Martins Polska S.A.",
        "payment:blik": "yes",
        "payment:cash": "yes",
        "payment:contactless": "yes",
        "payment:diners_club": "yes",
        "payment:maestro": "yes",
        "payment:mastercard": "yes",
        "payment:sodexo": "yes",
        "payment:v_pay": "yes",
        "payment:visa": "yes",
        "payment:visa_debit": "yes",
        "payment:visa_electron": "yes",
        "phone": "+48 22 205 33 00",
        "shop": "supermarket",
        "website": "https://www.biedronka.pl"
      }
    },
    {
      "type": "node",
      "id": 1116138498,
      "lat": 51.1290212,
      "lon": 16.970838,
      "tags": {
        "name": "Rossmann",
        "opening_hours": "Mo-Fr 08:30-20:00; Sa 08:30-18:00",
        "shop": "chemist",
        "source:opening_hours": "notes",
        "wheelchair": "yes"
      }
    },
    {
      "type": "node",
      "id": 1120194466,
      "lat": 51.0848155,
      "lon": 17.0105328,
      "tags": {
        "brand": "Biedronka",
        "email": "bok@biedronka.eu",
        "name": "Biedronka",
        "operator": "Jeronimo Martins Polska S.A.",
        "shop": "supermarket",
        "website": "http://www.biedronka.pl",
        "wheelchair": "yes"
      }
    },
    {
      "type": "node",
      "id": 1126573656,
      "lat": 51.0806876,
      "lon": 17.0493006,
      "tags": {
        "name": "Żabka",
        "opening_hours": "06:00-23:00",
        "shop": "convenience"
      }
    },
    {
      "type": "node",
      "id": 1126573663,
      "lat": 51.0798155,
      "lon": 17.0464951,
      "tags": {
        "name": "Żabka",
        "opening_hours": "06:00-23:00",
        "shop": "convenience"
      }
    },
    {
      "type": "node",
      "id": 1165526459,
      "lat": 51.0531389,
      "lon": 16.9689997,
      "tags": {
        "addr:city": "Bielany Wrocławskie",
        "addr:housenumber": "6",
        "addr:postcode": "55-040",
        "addr:street": "Francuska",
        "brand": "Media Markt",
        "brand:wikidata": "Q2381223",
        "brand:wikipedia": "en:Media Markt",
        "name": "Media Markt",
        "opening_hours": "Mo-Sa 09:30-21:00; Su 09:30-20:00",
        "phone": "+48 799 353 535",
        "shop": "electronics",
        "website": "https://mediamarkt.pl/sklep/wroclaw-auchan-bielany"
      }
    },
    {
      "type": "node",
      "id": 1165589036,
      "lat": 51.0829401,
      "lon": 17.037163,
      "tags": {
        "name": "M. Ostrowski",
        "shop": "musical_instrument",
        "url": "http://www.muzyczny.pl/"
      }
    },
    {
      "type": "node",
      "id": 1165633599,
      "lat": 51.1114008,
      "lon": 16.9593883,
      "tags": {
        "name": "Hala Strzegomska",
        "shop": "mall",
        "wheelchair": "limited"
      }
    },
    {
      "type": "node",
      "id": 1165633629,
      "lat": 51.1110537,
      "lon": 16.9597725,
      "tags": {
        "shop": "greengrocer"
      }
    },
    {
      "type": "node",
      "id": 1165685374,
      "lat": 51.1130141,
      "lon": 16.999038,
      "tags": {
        "addr:city": "Wrocław",
        "addr:housenumber": "38-40",
        "addr:postcode": "53-611",
        "addr:street": "Strzegomska",
        "name": "Cermag",
        "opening_hours": "Mo-Fr 09:00-19:00, Sa 09:00-16:00",
        "shop": "doityourself",
        "website": "http://www.cermag.com.pl/pl/kontakt/wroclaw/"
      }
    },
    {
      "type": "node",
      "id": 1166967752,
      "lat": 51.1040609,
      "lon": 17.0841059,
      "tags": {
        "addr:city": "Wrocław",
        "addr:postcode": "51-628",
        "addr:street": "Zygmunta Wróblewskiego",
        "delivery": "yes",
        "name": "Kwiaciarnia \"Akant\"",
        "opening_hours": "Mo-Sa 11:00-20:00",
        "payment:cash": "yes",
        "payment:mastercard": "yes",
        "payment:paypal": "yes",
        "payment:visa": "yes",
        "payment:visa_electron": "yes",
        "phone": "+48504962434",
        "shop": "florist",
        "website": "https://www.akant.wroclaw.pl"
      }
    },
    {
      "type": "node",
      "id": 1167817496,
      "lat": 51.1215232,
      "lon": 17.0160523,
      "tags": {
        "description": "Od 30 listopada 1995 do 2002 roku działał tu hipermarket \"Hit\", a od 2002 do 11 kwietnia 2020 \"Tesco\".",
        "name": "Kaufland",
        "shop": "supermarket",
        "start_date": "2020-05-14",
        "wheelchair": "yes"
      }
    },
    {
      "type": "node",
      "id": 1169024994,
      "lat": 51.1308463,
      "lon": 17.040701,
      "tags": {
        "brand": "E. Leclerc",
        "name": "E. Leclerc",
        "opening_hours": "Mo-Sa 08:00-21:00; Su 09:00-21:00",
        "shop": "supermarket",
        "source:opening_hours": "notes",
        "website": "https://wroclaw.leclerc.pl",
        "wheelchair": "limited"
      }
    },
    {
      "type": "node",
      "id": 1169037762,
      "lat": 51.1338464,
      "lon": 17.03363,
      "tags": {
        "shop": "kiosk"
      }
    },
    {
      "type": "node",
      "id": 1169037764,
      "lat": 51.1384196,
      "lon": 17.0323361,
      "tags": {
        "name": "Ponik",
        "shop": "supermarket"
      }
    },
    {
      "type": "node",
      "id": 1169037770,
      "lat": 51.1338512,
      "lon": 17.0337196,
      "tags": {
        "shop": "greengrocer"
      }
    },
    {
      "type": "node",
      "id": 1169040698,
      "lat": 51.1419071,
      "lon": 17.0846222,
      "tags": {
        "brand": "Castorama",
        "brand:wikidata": "Q966971",
        "brand:wikipedia": "fr:Castorama",
        "name": "Castorama",
        "shop": "doityourself",
        "wheelchair": "yes"
      }
    },
    {
      "type": "node",
      "id": 1169040699,
      "lat": 51.1427188,
      "lon": 17.08693,
      "tags": {
        "addr:city": "Wrocław",
        "addr:housenumber": "126",
        "addr:postcode": "51-421",
        "addr:street": "Bolesława Krzywoustego",
        "name": "Auchan",
        "opening_hours": "Mo-Sa 08:00-22:00; Su 09:00-21:00; PH off",
        "operator": "Auchan Polska Sp. z o.o.",
        "shop": "supermarket",
        "website": "https://www.auchan.pl/",
        "wheelchair": "yes"
      }
    },
    {
      "type": "node",
      "id": 1169046362,
      "lat": 51.1447142,
      "lon": 17.1377415,
      "tags": {
        "brand": "Biedronka",
        "email": "bok@biedronka.eu",
        "name": "Biedronka",
        "name:ru": "Бедронка",
        "operator": "Jeronimo Martins Polska S.A.",
        "shop": "supermarket",
        "website": "https://www.biedronka.pl"
      }
    },
    {
      "type": "node",
      "id": 1189868597,
      "lat": 51.0633486,
      "lon": 16.9926651,
      "tags": {
        "addr:housenumber": "21",
        "addr:postcode": "53-031",
        "addr:street": "Partynicka",
        "name": "Bravo Auto Serwis",
        "shop": "car_repair"
      }
    },
    {
      "type": "node",
      "id": 1200179854,
      "lat": 51.0740223,
      "lon": 17.0329185,
      "tags": {
        "addr:city": "Wrocław",
        "addr:housenumber": "246",
        "addr:postcode": "50-558",
        "addr:street": "Borowska",
        "addr:street:sym_ul": "01866",
        "name": "CC Optyk dr Z. & A. Grzech",
        "shop": "optician"
      }
    },
    {
      "type": "node",
      "id": 1200189860,
      "lat": 51.1609724,
      "lon": 17.1288706,
      "tags": {
        "addr:city": "Wrocław",
        "addr:housenumber": "17a",
        "addr:postcode": "51-215",
        "addr:street": "Zatorska",
        "addr:street:sym_ul": "25741",
        "contact:facebook": "https://www.facebook.com/BOTANIK-207016749356219/timeline",
        "name": "Botanik",
        "shop": "garden_centre",
        "source:addr": "WroclawGIS",
        "website": "http://www.botanikwroclaw.pl"
      }
    },
    {
      "type": "node",
      "id": 1200190927,
      "lat": 51.0685338,
      "lon": 16.9939114,
      "tags": {
        "beauty": "aesthetic",
        "description": "salon kosmetyki estetycznej",
        "name": "Ann Vinci",
        "shop": "beauty"
      }
    },
    {
      "type": "node",
      "id": 1200226045,
      "lat": 51.1518113,
      "lon": 17.0368507,
      "tags": {
        "WroclawGIS:addr:id": "44820",
        "addr:city": "Wrocław",
        "addr:country": "PL",
        "addr:housenumber": "39",
        "addr:postcode": "51-127",
        "addr:street": "Milicka",
        "addr:street:sym_ul": "12937",
        "name": "Aluzaro dekor",
        "shop": "curtain",
        "website": "http://www.aluzarodekor.pl/"
      }
    },
    {
      "type": "node",
      "id": 1200230108,
      "lat": 51.123855,
      "lon": 16.9864741,
      "tags": {
        "WroclawGIS:addr:date": "2011-03-13",
        "WroclawGIS:addr:id": "42081",
        "WroclawGIS:addr:layer": "search/0",
        "WroclawGIS:addr:postcode:id": "43097",
        "WroclawGIS:addr:postcode:layer": "odniesienie_k_lite/1",
        "addr:city": "Wrocław",
        "addr:country": "PL",
        "addr:housenumber": "70A",
        "addr:postcode": "54-206",
        "addr:street": "Legnicka",
        "addr:street:sym_ul": "10780",
        "contact:website": "http://autopon.eu",
        "description": "Wulkanizacja, sprzedaż, serwis opon i felg",
        "name": "Autopon",
        "shop": "tyres",
        "source:addr": "WroclawGIS"
      }
    },
    {
      "type": "node",
      "id": 1200275972,
      "lat": 51.0905146,
      "lon": 16.9858363,
      "tags": {
        "addr:city": "Wrocław",
        "addr:country": "PL",
        "addr:housenumber": "6",
        "addr:postcode": "53-212",
        "addr:street": "Odkrywców",
        "addr:street:sym_ul": "14733",
        "description": "sklep monopolowy",
        "name": "Kazpol",
        "shop": "alcohol"
      }
    },
    {
      "type": "node",
      "id": 1200294104,
      "lat": 51.1387518,
      "lon": 17.0689593,
      "tags": {
        "WroclawGIS:addr:date": "2011-03-13",
        "WroclawGIS:addr:id": "55103",
        "WroclawGIS:addr:layer": "search/0",
        "WroclawGIS:addr:postcode:id": "55666",
        "WroclawGIS:addr:postcode:layer": "odniesienie_k_lite/1",
        "addr:city": "Wrocław",
        "addr:country": "PL",
        "addr:housenumber": "3a",
        "addr:postcode": "51-168",
        "addr:street": "Sołtysowicka",
        "addr:street:sym_ul": "20568",
        "name": "Tłumiki - wymiana i naprawa",
        "opening_hours": "Mo-Fr 08:00-18:00; Sa 08:00-14:00",
        "shop": "car_repair",
        "source:addr": "WroclawGIS"
      }
    },
    {
      "type": "node",
      "id": 1200322645,
      "lat": 51.1461953,
      "lon": 16.8667744,
      "tags": {
        "addr:city": "Wrocław",
        "addr:housenumber": "36",
        "addr:postcode": "54-017",
        "addr:street": "Średzka",
        "addr:street:sym_ul": "22414",
        "brand": "Rossmann",
        "brand:wikidata": "Q316004",
        "brand:wikipedia": "de:Dirk Rossmann GmbH",
        "name": "Rossmann",
        "shop": "chemist",
        "source:addr": "WroclawGIS"
      }
    },
    {
      "type": "node",
      "id": 1200337882,
      "lat": 51.1325011,
      "lon": 17.066214,
      "tags": {
        "WroclawGIS:addr:date": "2011-03-13",
        "WroclawGIS:addr:id": "56914",
        "WroclawGIS:addr:layer": "search/0",
        "WroclawGIS:addr:postcode:id": "57056",
        "WroclawGIS:addr:postcode:layer": "odniesienie_k_lite/1",
        "addr:city": "Wrocław",
        "addr:country": "PL",
        "addr:housenumber": "23c",
        "addr:postcode": "51-163",
        "addr:street": "Aleja Marcina Kromera",
        "addr:street:sym_ul": "09951",
        "name": "STS",
        "shop": "bookmaker",
        "source:addr": "WroclawGIS"
      }
    },
    {
      "type": "node",
      "id": 1200369579,
      "lat": 51.0836286,
      "lon": 17.0512604,
      "tags": {
        "addr:city": "Wrocław",
        "addr:housenumber": "46",
        "addr:postcode": "50-541",
        "addr:street": "Aleja Armii Krajowej",
        "addr:street:sym_ul": "00428",
        "branch": "Skoda",
        "name": "Gall-ICM",
        "shop": "car"
      }
    },
    {
      "type": "node",
      "id": 1200382426,
      "lat": 51.0888306,
      "lon": 16.9852231,
      "tags": {
        "addr:city": "Wrocław",
        "addr:country": "PL",
        "addr:housenumber": "22",
        "addr:postcode": "53-212",
        "addr:street": "Odkrywców",
        "addr:street:sym_ul": "14733",
        "official_name": "Grabarczyk Ryszard. Piekarstwo, cukiernictwo",
        "opening_hours": "Mo-Fr 06:00-20:00; Sa 06:00-17:00; Su 08:00-16:00",
        "shop": "bakery"
      }
    },
    {
      "type": "node",
      "id": 1200430888,
      "lat": 51.081035,
      "lon": 16.9681794,
      "tags": {
        "WroclawGIS:addr:date": "2011-03-13",
        "WroclawGIS:addr:id": "27990",
        "WroclawGIS:addr:layer": "search/0",
        "WroclawGIS:addr:postcode:id": "29150",
        "WroclawGIS:addr:postcode:layer": "odniesienie_k_lite/1",
        "addr:city": "Wrocław",
        "addr:country": "PL",
        "addr:housenumber": "37",
        "addr:postcode": "52-401",
        "addr:street": "Ludwika Solskiego",
        "addr:street:sym_ul": "20551",
        "name": "Piekarnia Mazurek",
        "shop": "bakery",
        "source:addr": "WroclawGIS",
        "start_date": "1959"
      }
    },
    {
      "type": "node",
      "id": 1200431202,
      "lat": 51.0727106,
      "lon": 17.0886834,
      "tags": {
        "addr:city": "Wrocław",
        "addr:housenumber": "121A/U1",
        "addr:postcode": "52-013",
        "addr:street": "Opolska",
        "addr:street:sym_ul": "15095",
        "brand": "Żabka",
        "brand:wikidata": "Q2589061",
        "brand:wikipedia": "en:Żabka (convenience store)",
        "email": "kontakt@zabka.pl",
        "level": "0",
        "name": "Żabka",
        "opening_hours": "Mo-Sa 06:00-23:00; Su 09:00-22:00",
        "payment:cash": "yes",
        "payment:coins": "yes",
        "payment:credit_cards": "yes",
        "payment:debit_cards": "yes",
        "payment:mastercard": "yes",
        "phone": "+48 61 856 37 00",
        "shop": "convenience",
        "source:addr": "WroclawGIS",
        "website": "https://www.zabka.pl",
        "wheelchair": "yes"
      }
    },
    {
      "type": "node",
      "id": 1200476779,
      "lat": 51.133437,
      "lon": 17.0816776,
      "tags": {
        "addr:city": "Wrocław",
        "addr:housenumber": "8",
        "addr:postcode": "51-418",
        "addr:street": "Kukułcza",
        "addr:street:sym_ul": "10358",
        "shop": "convenience",
        "source:addr": "WroclawGIS"
      }
    },
    {
      "type": "node",
      "id": 1200477634,
      "lat": 51.0980362,
      "lon": 16.9451619,
      "tags": {
        "addr:city": "Wrocław",
        "addr:housenumber": "71",
        "addr:postcode": "54-611",
        "addr:street": "Stanisławowska",
        "addr:street:sym_ul": "20831",
        "contact:phone": "+4871 374 21 88",
        "name": "Bławatek",
        "opening_hours": "Sa 09:00-16:00; Mo-Fr 09:00-19:00",
        "shop": "florist",
        "source:addr": "WroclawGIS",
        "wheelchair": "no"
      }
    },
    {
      "type": "node",
      "id": 1200503249,
      "lat": 51.1327795,
      "lon": 17.0661376,
      "tags": {
        "WroclawGIS:addr:date": "2011-03-13",
        "WroclawGIS:addr:id": "39018",
        "WroclawGIS:addr:layer": "search/0",
        "WroclawGIS:addr:postcode:id": "39760",
        "WroclawGIS:addr:postcode:layer": "odniesienie_k_lite/1",
        "addr:city": "Wrocław",
        "addr:country": "PL",
        "addr:housenumber": "25a",
        "addr:postcode": "51-163",
        "addr:street": "Aleja Marcina Kromera",
        "addr:street:sym_ul": "09951",
        "shop": "vacant",
        "source:addr": "WroclawGIS"
      }
    },
    {
      "type": "node",
      "id": 1200503724,
      "lat": 51.1201816,
      "lon": 17.0303117,
      "tags": {
        "addr:city": "Wrocław",
        "addr:housenumber": "32",
        "addr:postcode": "50-218",
        "addr:street": "Pomorska",
        "internet_access": "wlan",
        "name": "Eyebox",
        "opening_hours": "Mo-Fr 10:00-19:30",
        "phone": "+48609550565",
        "shop": "beauty",
        "website": "http://www.eyebox.pl"
      }
    },
    {
      "type": "node",
      "id": 1200505026,
      "lat": 51.1179336,
      "lon": 17.0107184,
      "tags": {
        "addr:city": "Wrocław",
        "addr:country": "PL",
        "addr:housenumber": "20",
        "addr:postcode": "53-629",
        "addr:street": "Ścinawska",
        "addr:street:sym_ul": "22302",
        "beauty": "tanning",
        "level": "1",
        "name": "Solarium Paola",
        "shop": "beauty"
      }
    },
    {
      "type": "node",
      "id": 1200534908,
      "lat": 51.1344685,
      "lon": 17.0192065,
      "tags": {
        "addr:city": "Wrocław",
        "addr:country": "PL",
        "addr:housenumber": "45",
        "addr:postcode": "51-110",
        "addr:street": "Osobowicka",
        "addr:street:sym_ul": "15337",
        "contact:facebook": "https://www.facebook.com/GJDAutoSerwis",
        "name": "GJD-Auto Serwis",
        "shop": "car_repair"
      }
    },
    {
      "type": "node",
      "id": 1200542744,
      "lat": 51.144676,
      "lon": 17.0679793,
      "tags": {
        "addr:city": "Wrocław",
        "addr:housenumber": "14",
        "addr:postcode": "51-168",
        "addr:street": "Lothara Herbsta",
        "description": "Detaliczna i hurtowa sprzedaż wyrobów hutniczych",
        "name": "Aner",
        "opening_hours": "Mo-Fr 07:30-16:00; Sa 08:00-13:00",
        "shop": "trade",
        "trade": "metal",
        "website": "http://www.aner.com.pl/",
        "wholesale": "yes"
      }
    },
    {
      "type": "node",
      "id": 1200546699,
      "lat": 51.0767429,
      "lon": 17.0401388,
      "tags": {
        "addr:city": "Wrocław",
        "addr:housenumber": "45a",
        "addr:postcode": "50-559",
        "addr:street": "Świeradowska",
        "addr:street:sym_ul": "22477",
        "description": "Barber/Fryzjer Męski",
        "name": "BarberKing",
        "shop": "hairdresser"
      }
    },
    {
      "type": "node",
      "id": 1200695006,
      "lat": 51.1546573,
      "lon": 17.1262003,
      "tags": {
        "addr:city": "Wrocław",
        "addr:country": "PL",
        "addr:housenumber": "18",
        "addr:postcode": "51-214",
        "addr:street": "Danuty Siedzikówny",
        "shop": "car_parts",
        "source:addr": "EMUiA"
      }
    },
    {
      "type": "node",
      "id": 1200740845,
      "lat": 51.1383627,
      "lon": 17.0686627,
      "tags": {
        "WroclawGIS:addr:date": "2011-03-13",
        "WroclawGIS:addr:id": "29578",
        "WroclawGIS:addr:layer": "search/0",
        "WroclawGIS:addr:postcode:id": "26707",
        "WroclawGIS:addr:postcode:layer": "odniesienie_k_lite/1",
        "addr:city": "Wrocław",
        "addr:country": "PL",
        "addr:housenumber": "1",
        "addr:postcode": "51-168",
        "addr:street": "Sołtysowicka",
        "addr:street:sym_ul": "20568",
        "name": "EMP Turbo",
        "shop": "car_parts",
        "source:addr": "WroclawGIS",
        "website": "http://www.emp-turbo.pl"
      }
    },
    {
      "type": "node",
      "id": 1200744616,
      "lat": 51.1020489,
      "lon": 17.0533038,
      "tags": {
        "addr:city": "Wrocław",
        "addr:housenumber": "3b",
        "addr:postcode": "50-421",
        "addr:street": "Szybka",
        "name": "Vito Specials",
        "shop": "clothes"
      }
    },
    {
      "type": "node",
      "id": 1200796026,
      "lat": 51.1370678,
      "lon": 17.0717712,
      "tags": {
        "WroclawGIS:addr:date": "2011-03-13",
        "WroclawGIS:addr:id": "46300",
        "WroclawGIS:addr:layer": "search/0",
        "WroclawGIS:addr:postcode:id": "46194",
        "WroclawGIS:addr:postcode:layer": "odniesienie_k_lite/1",
        "addr:city": "Wrocław",
        "addr:country": "PL",
        "addr:housenumber": "33a",
        "addr:postcode": "51-165",
        "addr:street": "Bolesława Krzywoustego",
        "addr:street:sym_ul": "01749",
        "name": "ToMa",
        "shop": "alcohol",
        "source:addr": "WroclawGIS",
        "website": "http://www.pij.com.pl/"
      }
    },
    {
      "type": "node",
      "id": 1200808605,
      "lat": 51.1400756,
      "lon": 17.090045,
      "tags": {
        "WroclawGIS:addr:date": "2011-03-13",
        "WroclawGIS:addr:id": "17936",
        "WroclawGIS:addr:layer": "search/0",
        "WroclawGIS:addr:postcode:id": "20761",
        "WroclawGIS:addr:postcode:layer": "odniesienie_k_lite/1",
        "addr:city": "Wrocław",
        "addr:country": "PL",
        "addr:housenumber": "6a",
        "addr:postcode": "51-421",
        "addr:street": "Rakowa",
        "addr:street:sym_ul": "18425",
        "name": "LakierMaster - blacharstwo i lakiernictwo",
        "shop": "car_repair",
        "source:addr": "WroclawGIS"
      }
    },
    {
      "type": "node",
      "id": 1200808640,
      "lat": 51.162549,
      "lon": 17.029432,
      "tags": {
        "addr:city": "Wrocław",
        "addr:housenumber": "251",
        "addr:postcode": "51-129",
        "addr:street": "Żmigrodzka",
        "addr:street:sym_ul": "26477",
        "name": "Iveco i Fiat Uni-Truck Autoryzowany Salon i Serwis",
        "shop": "car_repair"
      }
    },
    {
      "type": "node",
      "id": 1200893195,
      "lat": 51.1623085,
      "lon": 17.0038012,
      "tags": {
        "WroclawGIS:addr:id": "49702",
        "addr:city": "Wrocław",
        "addr:housenumber": "11",
        "addr:postcode": "51-180",
        "addr:street": "Pełczyńska",
        "addr:street:sym_ul": "15922",
        "name": "Anmir",
        "shop": "car_repair"
      }
    },
    {
      "type": "node",
      "id": 1200907253,
      "lat": 51.1615197,
      "lon": 17.0036005,
      "tags": {
        "WroclawGIS:addr:id": "28076",
        "addr:city": "Wrocław",
        "addr:housenumber": "6",
        "addr:postcode": "51-180",
        "addr:street": "Pełczyńska",
        "addr:street:sym_ul": "15922",
        "name": "Jacky Auto Sport",
        "official_name": "Jacky Auto Sport sp.z o.o.",
        "shop": "car_parts",
        "website": "http://www.jacky.pl/"
      }
    },
    {
      "type": "node",
      "id": 1200919991,
      "lat": 51.1403051,
      "lon": 17.0728067,
      "tags": {
        "addr:city": "Wrocław",
        "addr:housenumber": "19c",
        "addr:postcode": "51-168",
        "addr:street": "Sołtysowicka",
        "contact:facebook": "https://www.facebook.com/chors.lighting",
        "name": "Chors",
        "opening_hours": "Mo-Fr 08:00-16:00",
        "shop": "lighting",
        "website": "http://chors.pl"
      }
    },
    {
      "type": "node",
      "id": 1200934553,
      "lat": 51.1326883,
      "lon": 17.080596,
      "tags": {
        "WroclawGIS:addr:date": "2011-03-13",
        "WroclawGIS:addr:id": "49630",
        "WroclawGIS:addr:layer": "search/0",
        "WroclawGIS:addr:postcode:id": "50424",
        "WroclawGIS:addr:postcode:layer": "odniesienie_k_lite/1",
        "addr:city": "Wrocław",
        "addr:country": "PL",
        "addr:housenumber": "4",
        "addr:postcode": "51-417",
        "addr:street": "Szpacza",
        "addr:street:sym_ul": "22057",
        "shop": "car_repair",
        "source:addr": "WroclawGIS"
      }
    },
    {
      "type": "node",
      "id": 1200954815,
      "lat": 51.1197006,
      "lon": 17.013211,
      "tags": {
        "name": "Baxo",
        "phone": "+48 605 722 417",
        "shop": "hardware",
        "website": "http://www.czesci.baxo.pl",
        "wheelchair": "yes"
      }
    },
    {
      "type": "node",
      "id": 1201297715,
      "lat": 51.1569335,
      "lon": 17.0318641,
      "tags": {
        "WroclawGIS:addr:id": "46536",
        "addr:city": "Wrocław",
        "addr:housenumber": "6b",
        "addr:postcode": "51-128",
        "addr:street": "Poświęcka",
        "addr:street:sym_ul": "17263",
        "alt_name": "PWB. Materiały budowlane",
        "name": "PWB",
        "opening_hours": "Mo-Fr 07:00-17:00; Sa 07:00-14:00",
        "shop": "trade",
        "website": "http://www.pwb.wroclaw.pl/",
        "wholesale": "yes"
      }
    },
    {
      "type": "node",
      "id": 1201297824,
      "lat": 51.1323584,
      "lon": 17.0623081,
      "tags": {
        "WroclawGIS:addr:date": "2011-03-13",
        "WroclawGIS:addr:id": "42853",
        "WroclawGIS:addr:layer": "search/0",
        "WroclawGIS:addr:postcode:id": "39630",
        "WroclawGIS:addr:postcode:layer": "odniesienie_k_lite/1",
        "addr:city": "Wrocław",
        "addr:country": "PL",
        "addr:housenumber": "71c",
        "addr:postcode": "51-162",
        "addr:street": "Aleja Tadeusza Boya-Żeleńskiego",
        "addr:street:sym_ul": "01928",
        "name": "Mobil Karm",
        "opening_hours": "Mo-Fr 10:00-18:00; Sa 10:00-14:00; Su off",
        "shop": "pet",
        "source:addr": "WroclawGIS"
      }
    },
    {
      "type": "node",
      "id": 1201299093,
      "lat": 51.0583741,
      "lon": 17.01372,
      "tags": {
        "addr:city": "Wrocław",
        "addr:housenumber": "20a",
        "addr:postcode": "53-033",
        "addr:street": "Zwycięska",
        "name": "Chleboteka",
        "opening_hours": "Mo-Sa 07:30-20:00; Su 08:00-20:00",
        "shop": "bakery",
        "start_date": "2019-02-23",
        "website": "https://chleboteka.pl"
      }
    },
    {
      "type": "node",
      "id": 1201302355,
      "lat": 51.1144564,
      "lon": 17.0459692,
      "tags": {
        "addr:city": "Wrocław",
        "addr:country": "PL",
        "addr:housenumber": "19",
        "addr:postcode": "50-329",
        "addr:street": "Plac Katedralny",
        "addr:street:sym_ul": "08203",
        "contact:email": "ksiegarnia@archidiecezja.wroc.pl",
        "contact:phone": "+48713225368",
        "name": "Wrocławska Księgarnia Archidiecezjalna",
        "opening_hours": "Mo-Fr 09:00-18:00; Sa 09:00-14:00",
        "shop": "books",
        "website": "http://www.ksiegarnia.archidiecezja.wroc.pl",
        "wheelchair": "yes"
      }
    },
    {
      "type": "node",
      "id": 1201303565,
      "lat": 51.1552512,
      "lon": 17.1273088,
      "tags": {
        "WroclawGIS:addr:date": "2011-03-13",
        "WroclawGIS:addr:id": "44083",
        "WroclawGIS:addr:layer": "search/0",
        "WroclawGIS:addr:postcode:id": "44883",
        "WroclawGIS:addr:postcode:layer": "odniesienie_k_lite/1",
        "addr:city": "Wrocław",
        "addr:country": "PL",
        "addr:housenumber": "2",
        "addr:postcode": "51-206",
        "addr:street": "Wilanowska",
        "addr:street:sym_ul": "24259",
        "brand": "Nissan",
        "name": "Impwar - autoryzowany dealer Nissana",
        "shop": "car",
        "source:addr": "WroclawGIS"
      }
    },
    {
      "type": "node",
      "id": 1201304576,
      "lat": 51.1406094,
      "lon": 16.9576963,
      "tags": {
        "addr:city": "Wrocław",
        "addr:housenumber": "140",
        "addr:postcode": "54-144",
        "addr:street": "Pilczycka",
        "addr:street:sym_ul": "16221",
        "name": "Społem",
        "operator": "PSS Społem Południe",
        "shop": "supermarket",
        "source:addr": "WroclawGIS"
      }
    },
    {
      "type": "node",
      "id": 1201306201,
      "lat": 51.0909441,
      "lon": 17.0596656,
      "tags": {
        "addr:city": "Wrocław",
        "addr:country": "PL",
        "addr:housenumber": "29",
        "addr:postcode": "50-424",
        "addr:street": "Krakowska",
        "addr:street:sym_ul": "09796",
        "contact:website": "www.autoszyby.pl",
        "name": "Auto-Kram Sp.J.",
        "shop": "car_repair"
      }
    },
    {
      "type": "node",
      "id": 1201308163,
      "lat": 51.0850343,
      "lon": 17.0665467,
      "tags": {
        "addr:city": "Wrocław",
        "addr:housenumber": "61",
        "addr:postcode": "50-541",
        "addr:street": "Aleja Armii Krajowej",
        "email": "dwswroclaw@intercars.eu",
        "name": "Inter Motors",
        "phone": "+48 667 971 037",
        "shop": "car_parts",
        "website": "http://warsztat.inter-motors.pl"
      }
    },
    {
      "type": "node",
      "id": 1201310757,
      "lat": 51.1388872,
      "lon": 17.0692644,
      "tags": {
        "WroclawGIS:addr:date": "2011-03-13",
        "WroclawGIS:addr:id": "45347",
        "WroclawGIS:addr:layer": "search/0",
        "WroclawGIS:addr:postcode:id": "47542",
        "WroclawGIS:addr:postcode:layer": "odniesienie_k_lite/1",
        "addr:city": "Wrocław",
        "addr:country": "PL",
        "addr:housenumber": "5a",
        "addr:postcode": "51-168",
        "addr:street": "Sołtysowicka",
        "addr:street:sym_ul": "20568",
        "name": "Darex Łożyska",
        "shop": "car_parts",
        "source:addr": "WroclawGIS",
        "website": "http://www.darex-lozyska.pl"
      }
    },
    {
      "type": "node",
      "id": 1201311660,
      "lat": 51.1327306,
      "lon": 17.0826061,
      "tags": {
        "addr:city": "Wrocław",
        "addr:housenumber": "12",
        "addr:postcode": "51-419",
        "addr:street": "Kuropatwia",
        "addr:street:sym_ul": "10452",
        "shop": "car_repair",
        "source:addr": "WroclawGIS"
      }
    },
    {
      "type": "node",
      "id": 1232763221,
      "lat": 51.1106868,
      "lon": 16.9693306,
      "tags": {
        "brand": "Toyota",
        "name": "Toyota Centrum",
        "shop": "car",
        "website": "https://www.toyota-centrum.pl"
      }
    },
    {
      "type": "node",
      "id": 1232771679,
      "lat": 51.1266962,
      "lon": 16.9759406,
      "tags": {
        "name": "Astra",
        "shop": "supermarket",
        "wheelchair": "yes"
      }
    },
    {
      "type": "node",
      "id": 1243158734,
      "lat": 51.0515304,
      "lon": 17.0593783,
      "tags": {
        "addr:city": "Wrocław",
        "addr:housenumber": "100",
        "addr:postcode": "52-131",
        "addr:street": "Buforowa",
        "name": "ABC",
        "opening_hours": "Mo-Fr 06:00-22:00; Sa 06:00-21:00",
        "shop": "convenience"
      }
    },
    {
      "type": "node",
      "id": 1243158739,
      "lat": 51.0510265,
      "lon": 17.0621244,
      "tags": {
        "addr:city": "Wrocław",
        "addr:housenumber": "9/11",
        "addr:postcode": "52-129",
        "addr:street": "Antonia Vivaldiego",
        "description": "biżuteria etniczna",
        "name": "Piekielko",
        "opening_hours": "Mo-Fr 09:00-17:00",
        "opening_hours:covid19": "restricted",
        "payment:cards": "yes",
        "payment:cash": "yes",
        "payment:electronic_purses": "yes",
        "phone": "+48 888 200 669",
        "shop": "jewelry",
        "website": "https://piekielko.com"
      }
    },
    {
      "type": "node",
      "id": 1245445656,
      "lat": 51.1126361,
      "lon": 17.0557572,
      "tags": {
        "name": "Kulesza",
        "opening_hours:signed": "no",
        "shop": "hairdresser"
      }
    },
    {
      "type": "node",
      "id": 1245445658,
      "lat": 51.1118532,
      "lon": 17.0576542,
      "tags": {
        "shop": "copyshop",
        "wheelchair": "no"
      }
    },
    {
      "type": "node",
      "id": 1245445659,
      "lat": 51.1120147,
      "lon": 17.0571577,
      "tags": {
        "shop": "jewelry",
        "wheelchair": "no"
      }
    },
    {
      "type": "node",
      "id": 1245445664,
      "lat": 51.111584,
      "lon": 17.0582358,
      "tags": {
        "name": "Żabka",
        "opening_hours": "Mo-Su 06:00-23:00",
        "shop": "convenience"
      }
    },
    {
      "type": "node",
      "id": 1245445665,
      "lat": 51.1119476,
      "lon": 17.0573524,
      "tags": {
        "name": "Kwiaty",
        "shop": "florist"
      }
    },
    {
      "type": "node",
      "id": 1246590953,
      "lat": 51.1003442,
      "lon": 17.0280351,
      "tags": {
        "name": "Galeria kwiatowa",
        "shop": "florist"
      }
    },
    {
      "type": "node",
      "id": 1256475178,
      "lat": 51.1413788,
      "lon": 16.8869195,
      "tags": {
        "shop": "hairdresser"
      }
    },
    {
      "type": "node",
      "id": 1274997230,
      "lat": 51.0770208,
      "lon": 17.0843545,
      "tags": {
        "shop": "greengrocer"
      }
    },
    {
      "type": "node",
      "id": 1274997232,
      "lat": 51.0769882,
      "lon": 17.0842934,
      "tags": {
        "shop": "florist"
      }
    },
    {
      "type": "node",
      "id": 1274997234,
      "lat": 51.0774851,
      "lon": 17.0835831,
      "tags": {
        "shop": "kiosk"
      }
    },
    {
      "type": "node",
      "id": 1274997235,
      "lat": 51.0744266,
      "lon": 17.0857626,
      "tags": {
        "shop": "doityourself"
      }
    },
    {
      "type": "node",
      "id": 1274997236,
      "lat": 51.0745269,
      "lon": 17.0841399,
      "tags": {
        "shop": "hairdresser"
      }
    },
    {
      "type": "node",
      "id": 1275012034,
      "lat": 51.0958261,
      "lon": 17.0550151,
      "tags": {
        "brand": "Biedronka",
        "name": "Biedronka",
        "operator": "Jeronimo Martins Polska S.A.",
        "shop": "supermarket",
        "wheelchair": "limited"
      }
    },
    {
      "type": "node",
      "id": 1275817300,
      "lat": 51.1462189,
      "lon": 16.8668415,
      "tags": {
        "brand": "Delikatesy Centrum",
        "brand:wikidata": "Q11693824",
        "brand:wikipedia": "pl:Delikatesy Centrum",
        "name": "Delikatesy Centrum",
        "opening_hours": "08:00-24:00",
        "shop": "supermarket"
      }
    },
    {
      "type": "node",
      "id": 1275817322,
      "lat": 51.1462878,
      "lon": 16.8662433,
      "tags": {
        "brand": "Biedronka",
        "brand:wikidata": "Q857182",
        "brand:wikipedia": "pl:Biedronka (sieć handlowa)",
        "name": "Biedronka",
        "opening_hours": "Mo-Sa 06:30-23:30; Su 08:00-20:00; PH off",
        "operator": "Jeronimo Martins Polska S.A.",
        "shop": "supermarket",
        "website": "https://www.biedronka.pl"
      }
    },
    {
      "type": "node",
      "id": 1280036164,
      "lat": 51.0877829,
      "lon": 17.0131779,
      "tags": {
        "shop": "greengrocer"
      }
    },
    {
      "type": "node",
      "id": 1280036168,
      "lat": 51.0890386,
      "lon": 17.0145364,
      "tags": {
        "name": "MultiMedia Polska",
        "shop": "electronics"
      }
    },
    {
      "type": "node",
      "id": 1280036170,
      "lat": 51.088121,
      "lon": 17.0135583,
      "tags": {
        "name": "Audiofon",
        "shop": "hearing_aids"
      }
    },
    {
      "type": "node",
      "id": 1280036173,
      "lat": 51.089327,
      "lon": 17.0148754,
      "tags": {
        "shop": "beauty"
      }
    },
    {
      "type": "node",
      "id": 1280063483,
      "lat": 51.0838804,
      "lon": 17.0099557,
      "tags": {
        "shop": "hairdresser",
        "unisex": "yes"
      }
    },
    {
      "type": "node",
      "id": 1280063493,
      "lat": 51.0839753,
      "lon": 17.0099275,
      "tags": {
        "alt_name": "Dermika - sklep partnerski",
        "name": "Drogeria Laguna",
        "shop": "chemist"
      }
    },
    {
      "type": "node",
      "id": 1280063495,
      "lat": 51.0822765,
      "lon": 17.0100304,
      "tags": {
        "name": "PHU Budimex",
        "shop": "trade"
      }
    },
    {
      "type": "node",
      "id": 1280063500,
      "lat": 51.0841694,
      "lon": 17.0102182,
      "tags": {
        "name": "Grabarczyk",
        "shop": "pastry"
      }
    },
    {
      "type": "node",
      "id": 1280063502,
      "lat": 51.0819819,
      "lon": 17.0100943,
      "tags": {
        "name": "Vena",
        "shop": "beauty"
      }
    },
    {
      "type": "node",
      "id": 1281889447,
      "lat": 51.0920619,
      "lon": 17.0194818,
      "tags": {
        "beauty": "cosmetics",
        "shop": "beauty"
      }
    },
    {
      "type": "node",
      "id": 1281889450,
      "lat": 51.0920199,
      "lon": 17.0194351,
      "tags": {
        "clothes": "underwear",
        "name": "Moni",
        "shop": "clothes"
      }
    },
    {
      "type": "node",
      "id": 1281889457,
      "lat": 51.0923136,
      "lon": 17.0197909,
      "tags": {
        "name": "nc+",
        "shop": "electronics"
      }
    },
    {
      "type": "node",
      "id": 1281990241,
      "lat": 51.101871,
      "lon": 17.0298965,
      "tags": {
        "name": "MegaMed",
        "opening_hours": "Mo-Sa 10:00-18:00",
        "shop": "shoes"
      }
    },
    {
      "type": "node",
      "id": 1282020945,
      "lat": 51.1087212,
      "lon": 17.0347335,
      "tags": {
        "name": "Darius",
        "opening_hours": "Mo-Fr 09:00-20:00; Sa 09:00-16:00",
        "phone": "+48 696 040 341",
        "shop": "beauty"
      }
    },
    {
      "type": "node",
      "id": 1282020949,
      "lat": 51.1085886,
      "lon": 17.0345891,
      "tags": {
        "beauty": "cosmetics",
        "name": "Wersal",
        "opening_hours": "Mo-Fr 09:00-20:00; Sa 10:00-16:00",
        "phone": "+48 71 344 20 82",
        "shop": "beauty",
        "website": "https://gabinetwersal.pl"
      }
    },
    {
      "type": "node",
      "id": 1286192751,
      "lat": 51.0970849,
      "lon": 17.0048133,
      "tags": {
        "shop": "hairdresser"
      }
    },
    {
      "type": "node",
      "id": 1286192752,
      "lat": 51.0952247,
      "lon": 17.0085749,
      "tags": {
        "shop": "vacant"
      }
    },
    {
      "type": "node",
      "id": 1286192758,
      "lat": 51.0963741,
      "lon": 17.0098371,
      "tags": {
        "noname": "yes",
        "shop": "garden_centre"
      }
    },
    {
      "type": "node",
      "id": 1293351480,
      "lat": 51.1236858,
      "lon": 16.9230668,
      "tags": {
        "name:signed": "no",
        "shop": "greengrocer"
      }
    },
    {
      "type": "node",
      "id": 1293351500,
      "lat": 51.1236483,
      "lon": 16.9232665,
      "tags": {
        "shop": "vacant"
      }
    },
    {
      "type": "node",
      "id": 1293351523,
      "lat": 51.1237163,
      "lon": 16.9226636,
      "tags": {
        "shop": "bakery"
      }
    },
    {
      "type": "node",
      "id": 1294592592,
      "lat": 51.1192518,
      "lon": 17.057972,
      "tags": {
        "description": "Cukiernia, pieczywa, lody, kawa",
        "name": "Cukiernia",
        "note": "przeniesiona z Nowowiejskiej 84",
        "opening_hours": "Mo-Fr 06:00-20:00; Sa 07:00-16:00; Su 09:00-16:00",
        "shop": "pastry"
      }
    },
    {
      "type": "node",
      "id": 1294592597,
      "lat": 51.1190807,
      "lon": 17.0582883,
      "tags": {
        "opening_hours": "Mo-Fr 10:00-18:00",
        "shop": "butcher"
      }
    },
    {
      "type": "node",
      "id": 1294592614,
      "lat": 51.1193029,
      "lon": 17.0578823,
      "tags": {
        "name": "Żabka",
        "opening_hours": "Mo-Su 06:00-23:00",
        "shop": "convenience"
      }
    },
    {
      "type": "node",
      "id": 1294592617,
      "lat": 51.1193926,
      "lon": 17.0577194,
      "tags": {
        "shop": "vacant"
      }
    },
    {
      "type": "node",
      "id": 1294592619,
      "lat": 51.1180716,
      "lon": 17.0593579,
      "tags": {
        "addr:city": "Wrocław",
        "addr:housenumber": "77",
        "addr:postcode": "50-340",
        "addr:street": "Nowowiejska",
        "name": "Dino",
        "note": "Dino zajmuje większość parteru",
        "opening_hours": "Mo-Sa 07:00-22:00; Su 08:00-21:00",
        "shop": "supermarket"
      }
    },
    {
      "type": "node",
      "id": 1294592631,
      "lat": 51.1175464,
      "lon": 17.0585619,
      "tags": {
        "name": "Texmet",
        "opening_hours": "Mo-Fr 08:00-17:00; Sa 09:00-13:00",
        "phone": "+48 71 322 99 86",
        "shop": "hardware"
      }
    },
    {
      "type": "node",
      "id": 1294592640,
      "lat": 51.1191043,
      "lon": 17.0582467,
      "tags": {
        "name": "Hert",
        "opening_hours": "Mo-Fr 07:00-18:00; Sa 07:00-14:00",
        "shop": "bakery"
      }
    },
    {
      "type": "node",
      "id": 1294592654,
      "lat": 51.1177764,
      "lon": 17.0586285,
      "tags": {
        "name": "MalFarb",
        "opening_hours": "Mo-Fr 08:00-18:00; Sa 09:00-14:00",
        "shop": "paint"
      }
    },
    {
      "type": "node",
      "id": 1294592663,
      "lat": 51.1192004,
      "lon": 17.0580722,
      "tags": {
        "name": "LM",
        "shop": "variety_store"
      }
    },
    {
      "type": "node",
      "id": 1294592675,
      "lat": 51.1183353,
      "lon": 17.0590542,
      "tags": {
        "shop": "vacant"
      }
    },
    {
      "type": "node",
      "id": 1294592679,
      "lat": 51.1182055,
      "lon": 17.0591953,
      "tags": {
        "name": "Fashion",
        "opening_hours": "Mo-Fr 08:00-19:00; Sa 08:00-15:00",
        "phone": "+48 71 795 60 76",
        "shop": "hairdresser"
      }
    },
    {
      "type": "node",
      "id": 1294592698,
      "lat": 51.1184347,
      "lon": 17.0588666,
      "tags": {
        "description": "odzież, obuwie, dodatki",
        "name": "Lauritta",
        "opening_hours": "Mo-Fr 09:00-17:00; Sa 10:00-14:00",
        "shop": "clothes"
      }
    },
    {
      "type": "node",
      "id": 1294592707,
      "lat": 51.1192466,
      "lon": 17.0573915,
      "tags": {
        "name": "Creator Fryzur",
        "opening_hours": "Mo-Fr 08:00-20:00; Sa 08:00-15:00",
        "shop": "hairdresser"
      }
    },
    {
      "type": "node",
      "id": 1294592710,
      "lat": 51.1165886,
      "lon": 17.0609356,
      "tags": {
        "contact:phone": "+48713283489",
        "name": "Anna",
        "opening_hours": "Mo-Sa 08:30-19:00; Su 10:00-19:00",
        "shop": "florist"
      }
    },
    {
      "type": "node",
      "id": 1310136878,
      "lat": 51.1199636,
      "lon": 17.039414,
      "tags": {
        "brand": "Biedronka",
        "email": "bok@biedronka.eu",
        "name": "Biedronka",
        "name:ru": "Бедронка",
        "opening_hours": "Mo-Sa 07:00-21:00; Su 09:00-20:00",
        "operator": "Jeronimo Martins Polska S.A.",
        "shop": "supermarket",
        "website": "https://www.biedronka.pl"
      }
    },
    {
      "type": "node",
      "id": 1310141589,
      "lat": 51.11265,
      "lon": 16.9631103,
      "tags": {
        "shop": "bicycle"
      }
    },
    {
      "type": "node",
      "id": 1356647628,
      "lat": 51.0676544,
      "lon": 16.9927477,
      "tags": {
        "name": "Żabka",
        "opening_hours": "Mo-Su 06:00-23:00",
        "shop": "convenience",
        "wheelchair": "yes"
      }
    },
    {
      "type": "node",
      "id": 1363553648,
      "lat": 51.1452843,
      "lon": 17.1172395,
      "tags": {
        "name": "Rabat",
        "shop": "convenience"
      }
    },
    {
      "type": "node",
      "id": 1363879119,
      "lat": 51.0563038,
      "lon": 17.0126839,
      "tags": {
        "name": "Witaminka",
        "shop": "greengrocer"
      }
    },
    {
      "type": "node",
      "id": 1368338514,
      "lat": 51.1205131,
      "lon": 17.0781472,
      "tags": {
        "addr:city": "Wrocław",
        "addr:housenumber": "33",
        "addr:postcode": "51-602",
        "addr:street": "Aleja Jana Kochanowskiego",
        "name": "Delikatesy T&J",
        "opening_hours": "Mo-Fr 07:00-21:00; Sa 07:00-20:00; Su 09:00-16:00",
        "operator": "Tradycja i Jakość",
        "shop": "supermarket"
      }
    },
    {
      "type": "node",
      "id": 1368338525,
      "lat": 51.1202082,
      "lon": 17.0783474,
      "tags": {
        "shop": "convenience"
      }
    },
    {
      "type": "node",
      "id": 1368338526,
      "lat": 51.1204935,
      "lon": 17.077979,
      "tags": {
        "shop": "florist"
      }
    },
    {
      "type": "node",
      "id": 1368340454,
      "lat": 51.1017792,
      "lon": 17.1091034,
      "tags": {
        "name": "IM Motion",
        "shop": "bicycle"
      }
    },
    {
      "type": "node",
      "id": 1368340456,
      "lat": 51.1015312,
      "lon": 17.1092505,
      "tags": {
        "name": "Hewea",
        "shop": "convenience"
      }
    },
    {
      "type": "node",
      "id": 1368340458,
      "lat": 51.1016613,
      "lon": 17.1090704,
      "tags": {
        "addr:city": "Wrocław",
        "addr:housenumber": "128",
        "addr:postcode": "51-648",
        "addr:street": "Karola Olszewskiego",
        "name": "Fauna5",
        "shop": "pet",
        "website": "https://fauna5.pl/nasze-sklepy"
      }
    },
    {
      "type": "node",
      "id": 1368344718,
      "lat": 51.1057205,
      "lon": 17.1048503,
      "tags": {
        "addr:city": "Wrocław",
        "addr:housenumber": "1c",
        "addr:street": "Spółdzielcza",
        "shop": "health_food"
      }
    },
    {
      "type": "node",
      "id": 1368344720,
      "lat": 51.1058711,
      "lon": 17.1049977,
      "tags": {
        "addr:city": "Wrocław",
        "addr:housenumber": "1b",
        "addr:street": "Spółdzielcza",
        "name": "Rożek",
        "opening_hours": "Mo-Fr 07:00-21:30; Sa 8:00-21:30; Su 09:00-22:00",
        "shop": "convenience"
      }
    },
    {
      "type": "node",
      "id": 1368344722,
      "lat": 51.1061447,
      "lon": 17.1041436,
      "tags": {
        "brand": "Żabka",
        "brand:wikidata": "Q2589061",
        "brand:wikipedia": "pl:Żabka (sieć sklepów)",
        "name": "Żabka",
        "opening_hours": "Mo-Sa 06:00-22:00",
        "shop": "convenience",
        "stroller": "yes",
        "website": "https://www.zabka.pl/",
        "wheelchair": "yes"
      }
    },
    {
      "type": "node",
      "id": 1368346675,
      "lat": 51.1052868,
      "lon": 17.1123337,
      "tags": {
        "name": "Twój Kiosk",
        "shop": "newsagent"
      }
    },
    {
      "type": "node",
      "id": 1368346686,
      "lat": 51.1056821,
      "lon": 17.1113748,
      "tags": {
        "addr:housenumber": "6",
        "addr:postcode": "51-649",
        "addr:street": "Marcelego Bacciarellego",
        "brand": "Lewiatan",
        "brand:wikidata": "Q11755396",
        "brand:wikipedia": "pl:Lewiatan (sieć handlowa)",
        "name": "Lewiatan",
        "opening_hours": "Mo-Sa 06:00-23:00; Su 08:00-22:00",
        "shop": "convenience",
        "website": "https://lewiatan.pl/znajdz-sklep/lewiatan-wroclaw-wroclaw-srodmiescie-bacciarellego-6"
      }
    },
    {
      "type": "node",
      "id": 1368350416,
      "lat": 51.1015329,
      "lon": 17.1103804,
      "tags": {
        "shop": "kiosk"
      }
    },
    {
      "type": "node",
      "id": 1368350418,
      "lat": 51.1016109,
      "lon": 17.1102216,
      "tags": {
        "shop": "alcohol"
      }
    },
    {
      "type": "node",
      "id": 1368362131,
      "lat": 51.1036324,
      "lon": 17.0375203,
      "tags": {
        "addr:city": "Wrocław",
        "addr:country": "PL",
        "addr:housenumber": "35",
        "addr:postcode": "50-004",
        "addr:street": "Hugona Kołłątaja",
        "addr:street:sym_ul": "09003",
        "name": "Dars",
        "second_hand": "only",
        "shop": "clothes"
      }
    },
    {
      "type": "node",
      "id": 1368362138,
      "lat": 51.1016633,
      "lon": 17.0395522,
      "tags": {
        "second_hand": "only",
        "shop": "clothes"
      }
    },
    {
      "type": "node",
      "id": 1368362140,
      "lat": 51.1024218,
      "lon": 17.0398141,
      "tags": {
        "addr:city": "Wrocław",
        "addr:housenumber": "7a",
        "addr:postcode": "50-456",
        "addr:street": "Dworcowa",
        "name": "Delikatesy Longinus",
        "opening_hours": "07:00-22:00",
        "shop": "convenience",
        "wheelchair": "no"
      }
    },
    {
      "type": "node",
      "id": 1368362145,
      "lat": 51.1024803,
      "lon": 17.0398142,
      "tags": {
        "addr:city": "Wrocław",
        "addr:housenumber": "7b",
        "addr:postcode": "50-456",
        "addr:street": "Dworcowa",
        "name": "Materiały budowlane",
        "opening_hours": "Mo-Fr 08:00-17:30; Sa 09:00-14:00",
        "shop": "hardware"
      }
    },
    {
      "type": "node",
      "id": 1368362151,
      "lat": 51.1026578,
      "lon": 17.0371664,
      "tags": {
        "name": "DOBRY FRYZJER",
        "shop": "hairdresser"
      }
    },
    {
      "type": "node",
      "id": 1368362152,
      "lat": 51.1026924,
      "lon": 17.0371736,
      "tags": {
        "shop": "kiosk"
      }
    },
    {
      "type": "node",
      "id": 1368362153,
      "lat": 51.102886,
      "lon": 17.0401673,
      "tags": {
        "name": "Piwoszek",
        "shop": "alcohol"
      }
    },
    {
      "type": "node",
      "id": 1368362156,
      "lat": 51.1029387,
      "lon": 17.0399601,
      "tags": {
        "shop": "bakery"
      }
    },
    {
      "type": "node",
      "id": 1368362158,
      "lat": 51.1031969,
      "lon": 17.0373909,
      "tags": {
        "name": "Loombard",
        "shop": "pawnbroker"
      }
    },
    {
      "type": "node",
      "id": 1368362164,
      "lat": 51.1034876,
      "lon": 17.03746,
      "tags": {
        "addr:city": "Wrocław",
        "addr:country": "PL",
        "addr:housenumber": "35",
        "addr:postcode": "50-004",
        "addr:street": "Hugona Kołłątaja",
        "addr:street:sym_ul": "09003",
        "name": "Dito",
        "second_hand": "yes",
        "shop": "clothes"
      }
    },
    {
      "type": "node",
      "id": 1368362167,
      "lat": 51.1037637,
      "lon": 17.0375587,
      "tags": {
        "shop": "vacant"
      }
    },
    {
      "type": "node",
      "id": 1368373093,
      "lat": 51.1017446,
      "lon": 17.0291542,
      "tags": {
        "check_date:opening_hours": "2021-06-10",
        "name": "Pod Arkadami",
        "opening_hours": "Mo-Fr 09:00-19:00; Sa 10:00-14:00",
        "shop": "books",
        "wheelchair": "yes"
      }
    },
    {
      "type": "node",
      "id": 1369332018,
      "lat": 51.1001015,
      "lon": 17.0391113,
      "tags": {
        "shop": "kiosk"
      }
    },
    {
      "type": "node",
      "id": 1375026884,
      "lat": 51.1018851,
      "lon": 17.0261106,
      "tags": {
        "addr:city": "Wrocław",
        "addr:housenumber": "39",
        "addr:postcode": "50-032",
        "addr:street": "Marszałka Józefa Piłsudskiego",
        "name": "Medilaser",
        "shop": "beauty",
        "website": "https://www.medilaser.pl/"
      }
    },
    {
      "type": "node",
      "id": 1389046462,
      "lat": 51.1093989,
      "lon": 17.0650907,
      "tags": {
        "addr:city": "Wrocław",
        "addr:postcode": "50-369",
        "addr:street": "Marii Curie-Skłodowskiej",
        "name": "Randal",
        "opening_hours": "Mo-Fr 09:00-18:00; Sa 09:00-14:00",
        "shop": "stationery",
        "website": "https://pieczatki-randal.business.site/"
      }
    },
    {
      "type": "node",
      "id": 1390754345,
      "lat": 51.1228072,
      "lon": 17.0511693,
      "tags": {
        "check_date": "2021-05-13",
        "shop": "vacant"
      }
    },
    {
      "type": "node",
      "id": 1406426442,
      "lat": 51.1036313,
      "lon": 16.9471389,
      "tags": {
        "addr:city": "Wrocław",
        "addr:housenumber": "35",
        "addr:postcode": "54-610",
        "addr:street": "Mińska",
        "name": "Armalux",
        "shop": "bathroom_furnishing",
        "website": "http://www.armaluxwroclaw.pl"
      }
    },
    {
      "type": "node",
      "id": 1412499731,
      "lat": 51.1359227,
      "lon": 17.0575595,
      "tags": {
        "shop": "newsagent"
      }
    },
    {
      "type": "node",
      "id": 1419975868,
      "lat": 51.0933028,
      "lon": 16.9864349,
      "tags": {
        "addr:city": "Wrocław",
        "addr:housenumber": "27f",
        "addr:postcode": "53-231",
        "addr:street": "Aleja Pracy",
        "contact:website": "http://eko.pl",
        "name": "Eko",
        "shop": "supermarket"
      }
    },
    {
      "type": "node",
      "id": 1420247351,
      "lat": 51.1269733,
      "lon": 17.058456,
      "tags": {
        "fixme": "checkme",
        "shop": "vacant"
      }
    },
    {
      "type": "node",
      "id": 1420247355,
      "lat": 51.1270776,
      "lon": 17.0574153,
      "tags": {
        "name": "Rabat",
        "shop": "convenience"
      }
    },
    {
      "type": "node",
      "id": 1420247385,
      "lat": 51.1255895,
      "lon": 17.0564926,
      "tags": {
        "shop": "hairdresser"
      }
    },
    {
      "type": "node",
      "id": 1420247398,
      "lat": 51.1259161,
      "lon": 17.0578069,
      "tags": {
        "shop": "convenience"
      }
    },
    {
      "type": "node",
      "id": 1420247414,
      "lat": 51.127074,
      "lon": 17.0581585,
      "tags": {
        "shop": "greengrocer"
      }
    },
    {
      "type": "node",
      "id": 1420252003,
      "lat": 51.1274275,
      "lon": 17.0565198,
      "tags": {
        "shop": "vacant"
      }
    },
    {
      "type": "node",
      "id": 1426810193,
      "lat": 51.1024231,
      "lon": 17.0528828,
      "tags": {
        "brand": "Biedronka",
        "email": "bok@biedronka.eu",
        "name": "Biedronka",
        "name:ru": "Бедронка",
        "opening_hours": "Mo-Sa 07:00-21:00; Su 09:00 - 20:00",
        "operator": "Jeronimo Martins Polska S.A.",
        "shop": "supermarket",
        "website": "https://www.biedronka.pl"
      }
    },
    {
      "type": "node",
      "id": 1431604966,
      "lat": 51.1210572,
      "lon": 17.0461369,
      "tags": {
        "name": "24h",
        "opening_hours": "24/7",
        "shop": "convenience"
      }
    },
    {
      "type": "node",
      "id": 1431611226,
      "lat": 51.1227636,
      "lon": 17.0503967,
      "tags": {
        "shop": "greengrocer"
      }
    },
    {
      "type": "node",
      "id": 1431611229,
      "lat": 51.1229723,
      "lon": 17.0505308,
      "tags": {
        "name": "U Pani Ani",
        "opening_hours": "Mo-Fr 08:00-18:00, Sa 08:00-15:00",
        "shop": "greengrocer",
        "wheelchair": "yes"
      }
    },
    {
      "type": "node",
      "id": 1446862193,
      "lat": 51.1222651,
      "lon": 17.049281,
      "tags": {
        "addr:housenumber": "15",
        "addr:street": "Norberta Barlickiego",
        "name": "Piekarnia Żelezny",
        "opening_hours": "Mo-Fr 5:00-17:00, Sa 5:00-14:00",
        "shop": "bakery"
      }
    },
    {
      "type": "node",
      "id": 1446873591,
      "lat": 51.1161727,
      "lon": 17.0582636,
      "tags": {
        "name": "Żabka",
        "opening_hours": "06:00-23:00",
        "shop": "convenience"
      }
    },
    {
      "type": "node",
      "id": 1494195198,
      "lat": 51.0903973,
      "lon": 17.0212626,
      "tags": {
        "shop": "kiosk"
      }
    },
    {
      "type": "node",
      "id": 1494195211,
      "lat": 51.0889518,
      "lon": 17.0209035,
      "tags": {
        "name": "S.R. Jaworscy",
        "shop": "bakery",
        "website": "http://www.jaworscy.eu"
      }
    },
    {
      "type": "node",
      "id": 1494196744,
      "lat": 51.0927356,
      "lon": 17.025329,
      "tags": {
        "shop": "florist"
      }
    },
    {
      "type": "node",
      "id": 1494210321,
      "lat": 51.0898687,
      "lon": 17.0191406,
      "tags": {
        "alt_name": "PitBull",
        "name": "Pit Bull",
        "shop": "hairdresser",
        "start_date": "2020-06"
      }
    },
    {
      "type": "node",
      "id": 1496242302,
      "lat": 51.0876381,
      "lon": 17.0193796,
      "tags": {
        "name": "abc",
        "shop": "convenience"
      }
    },
    {
      "type": "node",
      "id": 1496242303,
      "lat": 51.0886695,
      "lon": 17.0209849,
      "tags": {
        "shop": "newsagent"
      }
    },
    {
      "type": "node",
      "id": 1496242310,
      "lat": 51.089093,
      "lon": 17.0209852,
      "tags": {
        "shop": "greengrocer"
      }
    },
    {
      "type": "node",
      "id": 1496242311,
      "lat": 51.0889644,
      "lon": 17.0207111,
      "tags": {
        "shop": "clothes"
      }
    },
    {
      "type": "node",
      "id": 1496242314,
      "lat": 51.0880355,
      "lon": 17.0174958,
      "tags": {
        "check_date": "2020-09-01",
        "name": "Żabka",
        "opening_hours": "Mo-Su 06:00-23:00",
        "shop": "convenience"
      }
    },
    {
      "type": "node",
      "id": 1496242320,
      "lat": 51.0906761,
      "lon": 17.0183079,
      "tags": {
        "shop": "convenience"
      }
    },
    {
      "type": "node",
      "id": 1497262469,
      "lat": 51.133239,
      "lon": 16.9578861,
      "tags": {
        "addr:city": "Wrocław",
        "addr:housenumber": "28",
        "addr:street": "Szklarska",
        "name": "Spożywczy",
        "operator": "PSS Społem Południe",
        "shop": "supermarket"
      }
    },
    {
      "type": "node",
      "id": 1506796182,
      "lat": 51.1266957,
      "lon": 17.0280166,
      "tags": {
        "name": "Sport-Profit",
        "shop": "bicycle",
        "website": "http://www.sportprofit.pl"
      }
    },
    {
      "type": "node",
      "id": 1535728961,
      "lat": 51.1233312,
      "lon": 17.0564209,
      "tags": {
        "name": "Grosik",
        "opening_hours": "Mo-Fr 07:00-22:00; Sa 08:00-22:00; Su 09:00-20:00",
        "shop": "convenience"
      }
    },
    {
      "type": "node",
      "id": 1535728962,
      "lat": 51.1239941,
      "lon": 17.0552602,
      "tags": {
        "check_date": "2020-09-01",
        "name": "Żabka",
        "opening_hours": "Mo-Su 06:00-23:00",
        "shop": "convenience"
      }
    },
    {
      "type": "node",
      "id": 1560858016,
      "lat": 51.1029745,
      "lon": 17.084762,
      "tags": {
        "name": "Krzyś",
        "opening_hours": "Mo-Fr 06:30-21:00; Sa 07:00-19:00; Su 10:00-19:00",
        "shop": "convenience"
      }
    },
    {
      "type": "node",
      "id": 1560860499,
      "lat": 51.1020518,
      "lon": 17.0844464,
      "tags": {
        "name": "Hewea",
        "opening_hours": "Mo-Sa 07:00-21:00",
        "shop": "supermarket"
      }
    },
    {
      "type": "node",
      "id": 1562369223,
      "lat": 51.123645,
      "lon": 17.0416839,
      "tags": {
        "opening_hours": "Mo-Su 06:00-23:00",
        "shop": "convenience"
      }
    },
    {
      "type": "node",
      "id": 1562369918,
      "lat": 51.1234968,
      "lon": 17.0408577,
      "tags": {
        "name": "Piekarnia Julka",
        "shop": "bakery"
      }
    },
    {
      "type": "node",
      "id": 1591326619,
      "lat": 51.0977226,
      "lon": 17.0124133,
      "tags": {
        "addr:city": "Wrocław",
        "addr:housenumber": "36",
        "addr:street": "Szczęśliwa",
        "name": "Żabka",
        "shop": "convenience"
      }
    },
    {
      "type": "node",
      "id": 1591326629,
      "lat": 51.0861804,
      "lon": 17.046326,
      "tags": {
        "shop": "alcohol"
      }
    },
    {
      "type": "node",
      "id": 1610692311,
      "lat": 51.0759973,
      "lon": 17.0835678,
      "tags": {
        "shop": "butcher"
      }
    },
    {
      "type": "node",
      "id": 1610692318,
      "lat": 51.0759906,
      "lon": 17.0834659,
      "tags": {
        "shop": "bakery"
      }
    },
    {
      "type": "node",
      "id": 1610692323,
      "lat": 51.0760074,
      "lon": 17.0836617,
      "tags": {
        "shop": "greengrocer"
      }
    },
    {
      "type": "node",
      "id": 1627134274,
      "lat": 51.1106743,
      "lon": 16.9616673,
      "tags": {
        "addr:housenumber": "3/11",
        "addr:postcode": "54-401",
        "addr:street": "Szwedzka",
        "contact:website": "http://selvawroc.pl/",
        "name": "Selva Architektura Krajobrazu",
        "shop": "garden_centre"
      }
    },
    {
      "type": "node",
      "id": 1643459171,
      "lat": 51.1279844,
      "lon": 16.9898515,
      "tags": {
        "brand": "Biedronka",
        "name": "Biedronka",
        "opening_hours": "Mo-Su 07:00-13:30,14:30-20:00",
        "operator": "Jeronimo Martins Polska S.A.",
        "shop": "supermarket",
        "wheelchair": "yes"
      }
    },
    {
      "type": "node",
      "id": 1645791633,
      "lat": 51.0726757,
      "lon": 17.034073,
      "tags": {
        "addr:housenumber": "17",
        "addr:postcode": "50-572",
        "addr:street": "Himalajska",
        "name": "\"Effi\"",
        "shop": "convenience"
      }
    },
    {
      "type": "node",
      "id": 1645791636,
      "lat": 51.0747149,
      "lon": 17.0331343,
      "tags": {
        "addr:city": "Wrocław",
        "addr:housenumber": "214",
        "addr:postcode": "50-558",
        "addr:street": "Borowska",
        "name": "Lewiatan",
        "opening_hours": "Mo-Fr 06:00-22:00, Sa 06:00-22:00, Su 10:00-22:00",
        "shop": "convenience",
        "website": "https://www.lewiatan.pl/znajdz-sklep/lewiatan-wroclaw-borowska-214"
      }
    },
    {
      "type": "node",
      "id": 1645794636,
      "lat": 51.0823249,
      "lon": 17.0414169,
      "tags": {
        "shop": "greengrocer"
      }
    },
    {
      "type": "node",
      "id": 1645794638,
      "lat": 51.0820048,
      "lon": 17.0411436,
      "tags": {
        "shop": "butcher"
      }
    },
    {
      "type": "node",
      "id": 1645799284,
      "lat": 51.1114809,
      "lon": 17.0374607,
      "tags": {
        "name": "Delikatesy Centrum",
        "shop": "supermarket"
      }
    },
    {
      "type": "node",
      "id": 1645799287,
      "lat": 51.1069982,
      "lon": 17.0329584,
      "tags": {
        "name": "Ruch",
        "opening_hours": "Mo-Fr 06:00-18:00; Sa 07:00-14:00",
        "shop": "kiosk"
      }
    },
    {
      "type": "node",
      "id": 1659184579,
      "lat": 51.1164696,
      "lon": 16.9996094,
      "tags": {
        "shop": "kiosk"
      }
    },
    {
      "type": "node",
      "id": 1660517966,
      "lat": 51.0594556,
      "lon": 16.973995,
      "tags": {
        "check_date": "2020-09-01",
        "name": "Żabka",
        "opening_hours": "Mo-Su 06:00-23:00",
        "shop": "convenience"
      }
    },
    {
      "type": "node",
      "id": 1667295145,
      "lat": 51.1142143,
      "lon": 17.0664997,
      "tags": {
        "addr:city": "Wrocław",
        "addr:housenumber": "67",
        "addr:postcode": "50-365",
        "addr:street": "Grunwaldzka",
        "brand": "Carrefour Express",
        "brand:wikidata": "Q2940190",
        "brand:wikipedia": "fr:Carrefour Express",
        "name": "Carrefour Express",
        "opening_hours": "Mo-Sa 07:00-22:00; Su 09:00-19:00",
        "shop": "convenience",
        "website": "https://sklep.carrefour.pl/913563-carrefour-express-wroclaw-ul-grunwaldzka",
        "wheelchair": "yes"
      }
    },
    {
      "type": "node",
      "id": 1693543075,
      "lat": 51.1265346,
      "lon": 16.9900743,
      "tags": {
        "shop": "kiosk"
      }
    },
    {
      "type": "node",
      "id": 1721086718,
      "lat": 51.1124476,
      "lon": 17.0341686,
      "tags": {
        "shop": "vacant"
      }
    },
    {
      "type": "node",
      "id": 1736678682,
      "lat": 51.1025511,
      "lon": 17.0312629,
      "tags": {
        "name": "Kościuszki 21",
        "opening_hours": "Mo-Fr 07:00-22:00; Sa 08:00-22:00",
        "shop": "convenience",
        "source": "survey"
      }
    },
    {
      "type": "node",
      "id": 1736687845,
      "lat": 51.1024707,
      "lon": 17.0319071,
      "tags": {
        "name": "Twister",
        "opening_hours": "Mo-Fr 10:00-18:00; Sa 10:00-13:00",
        "shop": "travel_agency"
      }
    },
    {
      "type": "node",
      "id": 1746157414,
      "lat": 51.1001011,
      "lon": 17.0197251,
      "tags": {
        "name": "Hert",
        "shop": "bakery"
      }
    },
    {
      "type": "node",
      "id": 1751763649,
      "lat": 51.0727389,
      "lon": 16.9957998,
      "tags": {
        "name": "Krasnal",
        "shop": "convenience"
      }
    },
    {
      "type": "node",
      "id": 1752497485,
      "lat": 51.1083868,
      "lon": 17.0682825,
      "tags": {
        "name": "Krokus",
        "opening_hours": "Mo-Sa 06:00-22:00; Su 10:00-17:00",
        "shop": "convenience"
      }
    },
    {
      "type": "node",
      "id": 1765087427,
      "lat": 51.1009745,
      "lon": 16.9509787,
      "tags": {
        "name": "Bellove",
        "shop": "hairdresser",
        "wheelchair": "yes"
      }
    },
    {
      "type": "node",
      "id": 1767686350,
      "lat": 51.1464657,
      "lon": 17.1346994,
      "tags": {
        "addr:city": "Wrocław",
        "addr:housenumber": "70",
        "addr:postcode": "51-315",
        "addr:street": "Kiełczowska",
        "name": "Stokrotka",
        "shop": "supermarket"
      }
    },
    {
      "type": "node",
      "id": 1771393928,
      "lat": 51.1121969,
      "lon": 17.0134245,
      "tags": {
        "name": "Rabat",
        "opening_hours": "Mo-Fr 07:00-20:00; Sa 07:00-16:00",
        "shop": "convenience"
      }
    },
    {
      "type": "node",
      "id": 1775193816,
      "lat": 51.1424518,
      "lon": 17.0897381,
      "tags": {
        "addr:housenumber": "126",
        "addr:postcode": "51-421",
        "addr:street": "Bolesława Krzywoustego",
        "image": "https://mystore.decathlon.com/store//pl/0070066300663/photo-mag1188039191.jpg",
        "name": "Decathlon",
        "opening_hours": "Mo-Sa 09:00-21:00",
        "phone": "+48 71 711 89 00",
        "shop": "sports",
        "website": "https://www.decathlon.pl/store-view/sport-shop-wroc%C5%82aw-0070066300663"
      }
    },
    {
      "type": "node",
      "id": 1775193825,
      "lat": 51.141916,
      "lon": 17.0857056,
      "tags": {
        "name": "Go Sport",
        "shop": "sports"
      }
    },
    {
      "type": "node",
      "id": 1783423935,
      "lat": 51.1085188,
      "lon": 17.0343184,
      "tags": {
        "addr:city": "Wrocław",
        "addr:housenumber": "6/7",
        "addr:street": "Szewska",
        "brand": "Biedronka",
        "brand:wikidata": "Q857182",
        "brand:wikipedia": "pl:Biedronka (sieć handlowa)",
        "email": "bok@biedronka.eu",
        "name": "Biedronka",
        "name:ru": "Бедронка",
        "opening_hours": "Mo-Sa 06:00-00:00",
        "operator": "Jeronimo Martins Polska S.A.",
        "shop": "supermarket",
        "website": "https://www.biedronka.pl/",
        "wheelchair": "yes"
      }
    },
    {
      "type": "node",
      "id": 1793462398,
      "lat": 51.1205406,
      "lon": 17.036732,
      "tags": {
        "shop": "greengrocer"
      }
    },
    {
      "type": "node",
      "id": 1793462399,
      "lat": 51.1205678,
      "lon": 17.0383403,
      "tags": {
        "shop": "butcher"
      }
    },
    {
      "type": "node",
      "id": 1793462401,
      "lat": 51.120544,
      "lon": 17.0372738,
      "tags": {
        "shop": "greengrocer"
      }
    },
    {
      "type": "node",
      "id": 1793462402,
      "lat": 51.1208121,
      "lon": 17.0403078,
      "tags": {
        "description": "artykuły elektryczne; oświtelenie; ledy",
        "name": "Elektrosprzęt",
        "shop": "hardware"
      }
    },
    {
      "type": "node",
      "id": 1793462404,
      "lat": 51.1192914,
      "lon": 17.0368179,
      "tags": {
        "name": "Delikatesy",
        "shop": "vacant"
      }
    },
    {
      "type": "node",
      "id": 1793462501,
      "lat": 51.1206051,
      "lon": 17.0382472,
      "tags": {
        "shop": "convenience"
      }
    },
    {
      "type": "node",
      "id": 1793465342,
      "lat": 51.1229716,
      "lon": 17.0354604,
      "tags": {
        "shop": "convenience"
      }
    },
    {
      "type": "node",
      "id": 1813683175,
      "lat": 51.0829693,
      "lon": 16.9695362,
      "tags": {
        "addr:city": "Wrocław",
        "addr:housenumber": "50",
        "addr:street": "Ludwika Solskiego",
        "brand": "Społem",
        "brand:wikidata": "Q11826043",
        "brand:wikipedia": "pl:Powszechna Spółdzielnia Spożywców „Społem”",
        "name": "Społem",
        "opening_hours": "Mo-Fr 07:00-21:00; Sa 08:00-17:00; Su 09:00-15:00",
        "operator": "Społem PSS Południe",
        "shop": "supermarket"
      }
    },
    {
      "type": "node",
      "id": 1813783503,
      "lat": 51.0812413,
      "lon": 16.9680658,
      "tags": {
        "shop": "greengrocer"
      }
    },
    {
      "type": "node",
      "id": 1813785879,
      "lat": 51.0799023,
      "lon": 16.9668059,
      "tags": {
        "shop": "hairdresser"
      }
    },
    {
      "type": "node",
      "id": 1842925880,
      "lat": 51.1356033,
      "lon": 17.0346079,
      "tags": {
        "name": "Hert",
        "shop": "bakery"
      }
    },
    {
      "type": "node",
      "id": 1842925884,
      "lat": 51.1356213,
      "lon": 17.0347707,
      "tags": {
        "name": "Mini Delikatesy",
        "shop": "greengrocer"
      }
    },
    {
      "type": "node",
      "id": 1857936387,
      "lat": 51.0949969,
      "lon": 16.9912126,
      "tags": {
        "addr:housenumber": "19",
        "addr:postcode": "53-228",
        "addr:street": "Inżynierska",
        "name": "Społem",
        "shop": "supermarket"
      }
    },
    {
      "type": "node",
      "id": 1857936392,
      "lat": 51.0947885,
      "lon": 16.9918173,
      "tags": {
        "shop": "bakery"
      }
    },
    {
      "type": "node",
      "id": 1857936394,
      "lat": 51.0958277,
      "lon": 16.9871315,
      "tags": {
        "shop": "vacant"
      }
    },
    {
      "type": "node",
      "id": 1857936395,
      "lat": 51.0955179,
      "lon": 16.9885692,
      "tags": {
        "name": "Żabka",
        "old_name": "Freshmarket",
        "opening_hours": "Mo-Su 06:00-23:00",
        "shop": "convenience"
      }
    },
    {
      "type": "node",
      "id": 1857949368,
      "lat": 51.09478,
      "lon": 16.9783741,
      "tags": {
        "name": "Bazar",
        "opening_hours": "Mo-Fr 06:00-18:00, Sa 07:00-14:00",
        "shop": "convenience"
      }
    },
    {
      "type": "node",
      "id": 1857980715,
      "lat": 51.0898456,
      "lon": 17.0006744,
      "tags": {
        "name": "Haras",
        "shop": "convenience"
      }
    },
    {
      "type": "node",
      "id": 1857980716,
      "lat": 51.0887165,
      "lon": 16.9979304,
      "tags": {
        "brand": "Carrefour",
        "name": "Carrefour",
        "opening_hours": "Mo-Th 07:00-22:00, Fr-Sa 07:00-23:00, Su 09:00-21:00",
        "shop": "supermarket",
        "website": "https://www.carrefour.pl/sklepy/105"
      }
    },
    {
      "type": "node",
      "id": 1864415057,
      "lat": 51.1051195,
      "lon": 16.9462657,
      "tags": {
        "addr:city": "Wrocław",
        "addr:housenumber": "2a",
        "addr:postcode": "54-610",
        "addr:street": "Graniczna",
        "brand": "Carrefour",
        "name": "Carrefour",
        "opening_hours": "Mo-Sa 07:00-22:00; Su 09:00-21:00",
        "shop": "supermarket",
        "website": "https://www.carrefour.pl/sklepy/175",
        "wheelchair": "yes"
      }
    },
    {
      "type": "node",
      "id": 1881409669,
      "lat": 51.0629943,
      "lon": 16.9786505,
      "tags": {
        "shop": "hairdresser"
      }
    },
    {
      "type": "node",
      "id": 1882703828,
      "lat": 51.0641281,
      "lon": 16.9838316,
      "tags": {
        "shop": "alcohol",
        "wheelchair": "no"
      }
    },
    {
      "type": "node",
      "id": 1893770280,
      "lat": 51.0991124,
      "lon": 16.9411646,
      "tags": {
        "name": "\"BK\" Krężałek-Bukiety",
        "opening_hours": "Mo-Sa 09:00-18:00",
        "shop": "florist",
        "wheelchair": "no"
      }
    },
    {
      "type": "node",
      "id": 1893770294,
      "lat": 51.0976395,
      "lon": 16.9377997,
      "tags": {
        "brand": "Wszystkie",
        "contact:phone": "+48 793 185 064",
        "description": "elektromechanika, diagnostyka komputerowa, wymiana i naprawa opon, toczenie i frezowanie, klimatyzacja",
        "name": "AB Car Service",
        "opening_hours": "Mo-Fr 08:00-16:00",
        "shop": "car_repair",
        "wheelchair": "yes"
      }
    },
    {
      "type": "node",
      "id": 1893770298,
      "lat": 51.0965111,
      "lon": 16.9471011,
      "tags": {
        "addr:city": "Wrocław",
        "addr:housenumber": "52",
        "addr:postcode": "54-611",
        "addr:street": "Stanisławowska",
        "name": "Żabka",
        "opening_hours": "Mo-Sa 06:00-23:00; Su 10:00-21:00",
        "shop": "convenience",
        "wheelchair": "yes"
      }
    },
    {
      "type": "node",
      "id": 1893770302,
      "lat": 51.0955816,
      "lon": 16.940535,
      "tags": {
        "name": "Odido",
        "opening_hours": "Mo-Fr 08:00-21:00; Sa 08:00-21:00; Su 10:00-21:00",
        "shop": "convenience",
        "wheelchair": "yes"
      }
    },
    {
      "type": "node",
      "id": 1898864234,
      "lat": 51.1063549,
      "lon": 16.9472018,
      "tags": {
        "addr:city": "Wrocław",
        "addr:housenumber": "2a",
        "addr:postcode": "54-610",
        "addr:street": "Graniczna",
        "brand": "Empik",
        "name": "Empik",
        "opening_hours": "Mo-Sa 10:00-21:00; Su 10:00-20:00",
        "operator": "Empik",
        "shop": "books",
        "wheelchair": "yes"
      }
    },
    {
      "type": "node",
      "id": 1899683422,
      "lat": 51.1073085,
      "lon": 16.9471001,
      "tags": {
        "addr:city": "Wrocław",
        "addr:housenumber": "2a",
        "addr:postcode": "54-610",
        "addr:street": "Graniczna",
        "name": "Apart",
        "opening_hours": "Mo-Sa 10:00-21:00; Su 10:00-20:00",
        "shop": "jewelry",
        "website": "https://www.apart.pl",
        "wheelchair": "yes"
      }
    },
    {
      "type": "node",
      "id": 1899688243,
      "lat": 51.1072682,
      "lon": 16.947339,
      "tags": {
        "addr:city": "Wrocław",
        "addr:housenumber": "2a",
        "addr:postcode": "54-610",
        "addr:street": "Graniczna",
        "contact:website": "http://www.olsenfashion.com/pl/pl/index.jsp",
        "name": "Olsen",
        "opening_hours": "Mo-Sa 10:00-21:00; Su 10:00-20:00",
        "shop": "clothes",
        "wheelchair": "yes"
      }
    },
    {
      "type": "node",
      "id": 1900281113,
      "lat": 51.0826767,
      "lon": 17.0749839,
      "tags": {
        "name": "Rabbit",
        "shop": "car_repair"
      }
    },
    {
      "type": "node",
      "id": 1900558020,
      "lat": 51.1075375,
      "lon": 16.9474901,
      "tags": {
        "addr:city": "Wrocław",
        "addr:housenumber": "2a",
        "addr:postcode": "54-610",
        "addr:street": "Graniczna",
        "name": "Calzedonia",
        "opening_hours": "Mo-Sa 10:00-21:00; Su 10:00-20:00",
        "shop": "clothes",
        "website": "https://pl.calzedonia.com"
      }
    },
    {
      "type": "node",
      "id": 1900561138,
      "lat": 51.1074388,
      "lon": 16.9474299,
      "tags": {
        "addr:city": "Wrocław",
        "addr:housenumber": "2a",
        "addr:postcode": "54-610",
        "addr:street": "Graniczna",
        "contact:website": "http://eu.levi.com/pl_PL/index.html",
        "name": "Levi's",
        "opening_hours": "Mo-Sa 10:00-21:00; Su 10:00-20:00",
        "shop": "clothes",
        "wheelchair": "yes"
      }
    },
    {
      "type": "node",
      "id": 1900568441,
      "lat": 51.107175,
      "lon": 16.9465647,
      "tags": {
        "addr:city": "Wrocław",
        "addr:housenumber": "2a",
        "addr:postcode": "54-610",
        "addr:street": "Graniczna",
        "name": "Brand Collection",
        "opening_hours": "Mo-Sa 10:00-21:00; Su 10:00-20:00",
        "shop": "clothes",
        "wheelchair": "yes"
      }
    },
    {
      "type": "node",
      "id": 1900589195,
      "lat": 51.1072178,
      "lon": 16.9462954,
      "tags": {
        "addr:city": "Wrocław",
        "addr:country": "PL",
        "addr:housenumber": "2a",
        "addr:postcode": "54-610",
        "addr:street": "Graniczna",
        "name": "Gatta",
        "opening_hours": "Mo-Sa 10:00-21:00; Su 10:00-20:00",
        "shop": "clothes",
        "website": "https://www.gatta.pl",
        "wheelchair": "yes"
      }
    },
    {
      "type": "node",
      "id": 1900589196,
      "lat": 51.1070979,
      "lon": 16.9457583,
      "tags": {
        "addr:city": "Wrocław",
        "addr:country": "PL",
        "addr:housenumber": "2a",
        "addr:postcode": "54-610",
        "addr:street": "Graniczna",
        "name": "Kazar",
        "opening_hours": "Mo-Sa 10:00-21:00; Su 10:00-20:00",
        "shop": "shoes",
        "wheelchair": "yes"
      }
    },
    {
      "type": "node",
      "id": 1900589197,
      "lat": 51.1072468,
      "lon": 16.9461222,
      "tags": {
        "addr:city": "Wrocław",
        "addr:country": "PL",
        "addr:housenumber": "2a",
        "addr:postcode": "54-610",
        "addr:street": "Graniczna",
        "name": "La Vantil",
        "opening_hours": "Mo-Sa 10:00-21:00; Su 10:00-20:00",
        "shop": "clothes",
        "wheelchair": "yes"
      }
    },
    {
      "type": "node",
      "id": 1900589198,
      "lat": 51.1077846,
      "lon": 16.9463622,
      "tags": {
        "addr:city": "Wrocław",
        "addr:country": "PL",
        "addr:housenumber": "2a",
        "addr:postcode": "54-610",
        "addr:street": "Graniczna",
        "name": "LTB",
        "opening_hours": "Mo-Sa 10:00-21:00; Su 10:00-20:00",
        "shop": "clothes",
        "wheelchair": "yes"
      }
    },